[
  {
    "id": "1000000069",
    "name": "고려대구로병원장례식장",
    "category": "FUNERAL_HOME",
    "address": "서울특별시 구로구 구로동로 148 (구로동, 고려대부속구로병원)",
    "phone": "02-857-0444",
    "priceRange": {
      "min": 0,
      "max": 0
    },
    "hasParking": true,
    "coordinates": {
      "lat": 37.492751,
      "lng": 126.885373
    },
    "fileUrl": "/BCUser/facilitypic/1000000069/1554194027882.jpg"
  },
  {
    "id": "1000000385",
    "name": "서울아산병원 장례식장",
    "category": "FUNERAL_HOME",
    "address": "서울특별시 송파구 올림픽로43길 88 (풍납동, 서울아산병원)",
    "phone": "02-3010-2000",
    "priceRange": {
      "min": 0,
      "max": 0
    },
    "hasParking": true,
    "coordinates": {
      "lat": 37.5254548,
      "lng": 127.1084185
    },
    "fileUrl": "/BCUser/facilitypic/1487832630690_1000000385_0.jpg"
  },
  {
    "id": "1000000070",
    "name": "고려대학교안암병원장례식장",
    "category": "FUNERAL_HOME",
    "address": "서울특별시 성북구 안암동5가  126-1 고대안암병원장례식장",
    "phone": "02-923-4442",
    "priceRange": {
      "min": 0,
      "max": 0
    },
    "hasParking": true,
    "coordinates": {
      "lat": 37.589312,
      "lng": 127.025909
    },
    "fileUrl": "/BCUser/facilitypic/1000000070/1554194983893.jpg"
  },
  {
    "id": "1000000068",
    "name": "고려대안산병원장례식장",
    "category": "FUNERAL_HOME",
    "address": "경기도 안산시 단원구 적금로 123 (고잔동, 고려대학병원)",
    "phone": "031-411-4441",
    "priceRange": {
      "min": 0,
      "max": 0
    },
    "hasParking": true,
    "coordinates": {
      "lat": 37.3191333,
      "lng": 126.8252651
    },
    "fileUrl": "/BCUser/facilitypic/1460682259028_1000000068_0.JPG"
  },
  {
    "id": "1000000060",
    "name": "강동경희대학교병원장례식장",
    "category": "FUNERAL_HOME",
    "address": "서울특별시 강동구 동남로 892 (상일동, 강동경희대학교병원)",
    "phone": "02-440-8800",
    "priceRange": {
      "min": 0,
      "max": 0
    },
    "hasParking": true,
    "coordinates": {
      "lat": 37.5528301,
      "lng": 127.1571983
    },
    "fileUrl": "/BCUser/facilitypic/1000000060/1474974736026.jpg"
  },
  {
    "id": "1000000646",
    "name": "이대목동병원장례식장",
    "category": "FUNERAL_HOME",
    "address": "서울특별시 양천구 안양천로 1071 (목동, 이화여대목동병원)",
    "phone": "02-2650-5121",
    "priceRange": {
      "min": 0,
      "max": 0
    },
    "hasParking": true,
    "coordinates": {
      "lat": 37.5363794,
      "lng": 126.8864324
    },
    "fileUrl": "/BCUser/facilitypic/1000000646/1554194663915.jpg"
  },
  {
    "id": "1000000053",
    "name": "경상국립대학교병원장례식장",
    "category": "FUNERAL_HOME",
    "address": "경상남도 진주시 강남로 79 (칠암동, 경상대학교병원)",
    "phone": "055-750-8448",
    "priceRange": {
      "min": 0,
      "max": 0
    },
    "hasParking": true,
    "coordinates": {
      "lat": 35.176487,
      "lng": 128.095596
    },
    "fileUrl": "/BCUser/facilitypic/1468312924477_1000000053_0.jpg"
  },
  {
    "id": "7000002186",
    "name": "이대서울병원장례식장",
    "category": "FUNERAL_HOME",
    "address": "서울특별시 강서구 공항대로 260 (마곡동, 이화의대부속서울병원)",
    "phone": "02-6986-4440",
    "priceRange": {
      "min": 0,
      "max": 0
    },
    "hasParking": true,
    "coordinates": {
      "lat": 37.557953,
      "lng": 126.836319
    },
    "fileUrl": "/BCUser/facilitypic/7000002186/1554195467481.jpg"
  },
  {
    "id": "1000000546",
    "name": "연세대학교 신촌장례식장",
    "category": "FUNERAL_HOME",
    "address": "서울특별시 서대문구 연세로 50-1 (신촌동, 연세의료원)",
    "phone": "02-2227-7500",
    "priceRange": {
      "min": 0,
      "max": 0
    },
    "hasParking": true,
    "coordinates": {
      "lat": 37.564089,
      "lng": 126.9389809
    },
    "fileUrl": "/BCUser/facilitypic/1508199653150_1000000546_0.jpg"
  },
  {
    "id": "1000000059",
    "name": "경찰병원장례식장",
    "category": "FUNERAL_HOME",
    "address": "서울특별시 송파구 송이로 123 (가락동, 국립경찰병원)",
    "phone": "02-431-4400",
    "priceRange": {
      "min": 0,
      "max": 0
    },
    "hasParking": true,
    "coordinates": {
      "lat": 37.4964365,
      "lng": 127.1233624
    },
    "fileUrl": "/BCUser/facilitypic/1000000059/1554274016783.jpg"
  },
  {
    "id": "1000000243",
    "name": "보람상조개발(주)양산부산대병원장례식장",
    "category": "FUNERAL_HOME",
    "address": "경상남도 양산시 물금읍 금오로 20 (양산부산대학교병원 장례식장) ",
    "phone": "055-372-4447",
    "priceRange": {
      "min": 0,
      "max": 0
    },
    "hasParking": true,
    "coordinates": {
      "lat": 35.327951,
      "lng": 129.004603
    },
    "fileUrl": "/BCUser/facilitypic/1642493532503.JPG"
  },
  {
    "id": "1000000062",
    "name": "경희의료원장례식장",
    "category": "FUNERAL_HOME",
    "address": "서울특별시 동대문구 경희대로 23,경희의료원장례식장 (회기동, 경희의료원)",
    "phone": "02-958-9721",
    "priceRange": {
      "min": 0,
      "max": 0
    },
    "hasParking": true,
    "coordinates": {
      "lat": 37.593503,
      "lng": 127.051329
    },
    "fileUrl": "/BCUser/facilitypic/1332492373233_1000000062_0.JPG"
  },
  {
    "id": "1000000545",
    "name": "연세대학교 원주장례식장",
    "category": "FUNERAL_HOME",
    "address": "강원도 원주시 일산로 20,내 (일산동, 연세대학교원주세브란스기독병원)",
    "phone": "033-744-3969",
    "priceRange": {
      "min": 0,
      "max": 0
    },
    "hasParking": true,
    "coordinates": {
      "lat": 37.348731,
      "lng": 127.944251
    },
    "fileUrl": "/BCUser/facilitypic/1000000545/1554881307505.jpg"
  },
  {
    "id": "1000000366",
    "name": "샘안양병원장례식장",
    "category": "FUNERAL_HOME",
    "address": "경기도 안양시 만안구 삼덕로 9,613-8 (안양동, 안양샘병원)",
    "phone": "031-467-9114",
    "priceRange": {
      "min": 0,
      "max": 0
    },
    "hasParking": true,
    "coordinates": {
      "lat": 37.3934995,
      "lng": 126.9245371
    },
    "fileUrl": "/BCUser/facilitypic/1000000366/1559113945904.jpg"
  },
  {
    "id": "1000000345",
    "name": "삼성서울병원장례식장",
    "category": "FUNERAL_HOME",
    "address": "서울특별시 강남구 일원로 81 (일원동, 삼성의료원)",
    "phone": "02-3410-3151",
    "priceRange": {
      "min": 0,
      "max": 0
    },
    "hasParking": true,
    "coordinates": {
      "lat": 37.4889432,
      "lng": 127.0876424
    },
    "fileUrl": "/BCUser/facilitypic/1000000345/1474973044003.jpg"
  },
  {
    "id": "1000000630",
    "name": "원자력병원장례식장",
    "category": "FUNERAL_HOME",
    "address": "서울특별시 노원구 노원로 75 (공릉동, 한국원자력의학원)",
    "phone": "02-970-1288",
    "priceRange": {
      "min": 0,
      "max": 0
    },
    "hasParking": true,
    "coordinates": {
      "lat": 37.6294332,
      "lng": 127.0826468
    },
    "fileUrl": "/BCUser/facilitypic/1478507464406_1000000630_0.jpg"
  },
  {
    "id": "7000002320",
    "name": "성남시의료원장례식장",
    "category": "FUNERAL_HOME",
    "address": "경기도 성남시 수정구 수정로171번길 10 (태평동, 성남시의료원)",
    "phone": "031-738-7450",
    "priceRange": {
      "min": 0,
      "max": 0
    },
    "hasParking": true,
    "coordinates": {
      "lat": 37.444872,
      "lng": 127.138907
    },
    "fileUrl": "/BCUser/facilitypic/1581907250970_7000002320_0.jpg"
  },
  {
    "id": "7000000818",
    "name": "울산하늘공원 장례식장",
    "category": "FUNERAL_HOME",
    "address": "울산광역시 울주군 삼동면 보삼길 550 (조일리)",
    "phone": "052-255-3800",
    "priceRange": {
      "min": 0,
      "max": 0
    },
    "hasParking": true,
    "coordinates": {
      "lat": 35.470614,
      "lng": 129.133603
    },
    "fileUrl": "/BCUser/facilitypic/1465801650706_7000000818_0.jpg"
  },
  {
    "id": "7000002217",
    "name": "교원예움 아산장례식장",
    "category": "FUNERAL_HOME",
    "address": "충청남도 아산시 신정로 713 (방축동62-7, 방축동 42-1) ",
    "phone": "041-549-4441",
    "priceRange": {
      "min": 0,
      "max": 0
    },
    "hasParking": true,
    "coordinates": {
      "lat": 36.781397,
      "lng": 126.987084
    },
    "fileUrl": "/BCUser/facilitypic/1625533627499.JPG"
  },
  {
    "id": "1000000645",
    "name": "의정부성모장례식장",
    "category": "FUNERAL_HOME",
    "address": "경기도 의정부시 천보로 271 (금오동, 의정부성모병원)",
    "phone": "031-820-3468",
    "priceRange": {
      "min": 0,
      "max": 0
    },
    "hasParking": true,
    "coordinates": {
      "lat": 37.758672,
      "lng": 127.078544
    },
    "fileUrl": "/BCUser/facilitypic/1000000645/1563433204283.jpg"
  },
  {
    "id": "7000001029",
    "name": "(재)하늘가장례식장",
    "category": "FUNERAL_HOME",
    "address": "경기도 화성시 향남읍 발안로 322 (관리)",
    "phone": "031-366-4444",
    "priceRange": {
      "min": 0,
      "max": 0
    },
    "hasParking": true,
    "coordinates": {
      "lat": 37.1327958,
      "lng": 126.9420045
    },
    "fileUrl": "/BCUser/facilitypic/1435812872123_7000001029_0.jpg"
  },
  {
    "id": "7000001214",
    "name": "충주병원장례식장(주)",
    "category": "FUNERAL_HOME",
    "address": "충청북도 충주시 중심1길 12 (문화동)",
    "phone": "043-845-5100",
    "priceRange": {
      "min": 0,
      "max": 0
    },
    "hasParking": true,
    "coordinates": {
      "lat": 36.973654,
      "lng": 127.925801
    },
    "fileUrl": "/BCUser/facilitypic/1473156851859_7000001214_0.jpg"
  },
  {
    "id": "7000000945",
    "name": "오포장례식장",
    "category": "FUNERAL_HOME",
    "address": "경기도 광주시 오포읍 오포로 225-7 (능평리)",
    "phone": "031-797-0444",
    "priceRange": {
      "min": 0,
      "max": 0
    },
    "hasParking": true,
    "coordinates": {
      "lat": 37.351262,
      "lng": 127.186579
    },
    "fileUrl": "/BCUser/facilitypic/7000000945/1554880951726.jpg"
  },
  {
    "id": "1000000415",
    "name": "가톨릭대학교 은평성모장례식장",
    "category": "FUNERAL_HOME",
    "address": "서울특별시 은평구 통일로 1021,은평성모장례식장 (진관동)",
    "phone": "02-2030-4444",
    "priceRange": {
      "min": 0,
      "max": 0
    },
    "hasParking": true,
    "coordinates": {
      "lat": 37.633114,
      "lng": 126.916595
    },
    "fileUrl": "/BCUser/facilitypic/1000000415/1569217241767.jpg"
  },
  {
    "id": "7000002961",
    "name": "춘천시민장례식장",
    "category": "FUNERAL_HOME",
    "address": "강원특별자치도 춘천시 영서로 2970 (사농동, 강원도새마을회관)",
    "phone": "033-244-4044",
    "priceRange": {
      "min": 0,
      "max": 0
    },
    "hasParking": true,
    "coordinates": {
      "lat": null,
      "lng": null
    },
    "fileUrl": "/BCUser/facilitypic/7000002961/1762996020828.jpg"
  },
  {
    "id": "1000000110",
    "name": "차병원장례식장",
    "category": "FUNERAL_HOME",
    "address": "경상북도 구미시 신시로10길 12 (형곡동, 차병원)",
    "phone": "054-452-1919",
    "priceRange": {
      "min": 0,
      "max": 0
    },
    "hasParking": true,
    "coordinates": {
      "lat": 36.1147524,
      "lng": 128.3407379
    },
    "fileUrl": "/BCUser/facilitypic/1000000110/1561614478417.jpg"
  },
  {
    "id": "7000000519",
    "name": "교원예움 강원장례식장",
    "category": "FUNERAL_HOME",
    "address": "강원도 춘천시 동내면 순환대로 877 (거두리)",
    "phone": "033-261-4441",
    "priceRange": {
      "min": 0,
      "max": 0
    },
    "hasParking": true,
    "coordinates": {
      "lat": 37.857811,
      "lng": 127.77493
    },
    "fileUrl": "/BCUser/facilitypic/7000000519/1561077247868.jpg"
  },
  {
    "id": "1000000411",
    "name": "청주성모병원 장례식장",
    "category": "FUNERAL_HOME",
    "address": "충청북도 청주시 청원구 주성로 173-19 (주중동)",
    "phone": "043-210-5444",
    "priceRange": {
      "min": 0,
      "max": 0
    },
    "hasParking": true,
    "coordinates": {
      "lat": 36.673321,
      "lng": 127.483993
    },
    "fileUrl": "/BCUser/facilitypic/1000000411/1474967748480.jpg"
  },
  {
    "id": "1000000723",
    "name": "대우병원장례식장",
    "category": "FUNERAL_HOME",
    "address": "경상남도 거제시 두모길 16 (두모동, 대우병원)",
    "phone": "055-680-8444",
    "priceRange": {
      "min": 0,
      "max": 0
    },
    "hasParking": true,
    "coordinates": {
      "lat": 34.871941,
      "lng": 128.722103
    },
    "fileUrl": "/BCUser/facilitypic/1421819769620_1000000723_0.JPG"
  },
  {
    "id": "1000000320",
    "name": "부산전문장례식장",
    "category": "FUNERAL_HOME",
    "address": "부산광역시 사상구 낙동대로 1056 (감전동, 부산전문장례예식장)",
    "phone": "051-312-4444",
    "priceRange": {
      "min": 0,
      "max": 0
    },
    "hasParking": true,
    "coordinates": {
      "lat": 35.1544536,
      "lng": 128.9737538
    },
    "fileUrl": "/BCUser/facilitypic/1740014214313.jpg"
  },
  {
    "id": "7000000904",
    "name": "(주)시민장례식장",
    "category": "FUNERAL_HOME",
    "address": "부산광역시 부산진구 자유평화로 31 (범천동)",
    "phone": "051-636-4444",
    "priceRange": {
      "min": 0,
      "max": 0
    },
    "hasParking": true,
    "coordinates": {
      "lat": 35.1416249,
      "lng": 129.0632007
    },
    "fileUrl": "/BCUser/facilitypic/7000000904/1556525073625.jpg"
  },
  {
    "id": "1000000906",
    "name": "호반병원장례식장",
    "category": "FUNERAL_HOME",
    "address": "강원도 춘천시 옛경춘로 663 (삼천동)",
    "phone": "033-252-0046",
    "priceRange": {
      "min": 0,
      "max": 0
    },
    "hasParking": true,
    "coordinates": {
      "lat": 37.856811,
      "lng": 127.707125
    },
    "fileUrl": "/BCUser/facilitypic/1327455595511_1000000906_0.jpg"
  },
  {
    "id": "7000001460",
    "name": "창원경상대학교병원장례식장",
    "category": "FUNERAL_HOME",
    "address": "경상남도 창원시 성산구 삼정자로 9 (성주동)",
    "phone": "055-214-1900",
    "priceRange": {
      "min": 0,
      "max": 0
    },
    "hasParking": true,
    "coordinates": {
      "lat": 35.198866,
      "lng": 128.705248
    },
    "fileUrl": "/BCUser/facilitypic/1474939320192_7000001460_0.jpg"
  },
  {
    "id": "1000000635",
    "name": "삼육서울병원 추모관(구위생병원)",
    "category": "FUNERAL_HOME",
    "address": "서울특별시 동대문구 망우로 82 (휘경동)",
    "phone": "02-2215-4444",
    "priceRange": {
      "min": 0,
      "max": 0
    },
    "hasParking": true,
    "coordinates": {
      "lat": 37.5892778,
      "lng": 127.0645418
    },
    "fileUrl": "/BCUser/facilitypic/1467075632922_1000000635_0.jpg"
  },
  {
    "id": "1000000115",
    "name": "대구의료원 국화원 장례식장",
    "category": "FUNERAL_HOME",
    "address": "대구광역시 서구 평리로 157 (중리동, 대구의료원)",
    "phone": "053-560-9552",
    "priceRange": {
      "min": 0,
      "max": 0
    },
    "hasParking": true,
    "coordinates": {
      "lat": 35.8596025,
      "lng": 128.5405922
    },
    "fileUrl": "/BCUser/facilitypic/1565144735123_1000000115_0.jpg"
  },
  {
    "id": "1000000691",
    "name": "(주)코스모스제일장례식장",
    "category": "FUNERAL_HOME",
    "address": "경기도 안산시 상록구 수인로 1222 (일동)",
    "phone": "031-406-2000",
    "priceRange": {
      "min": 0,
      "max": 0
    },
    "hasParking": true,
    "coordinates": {
      "lat": 37.30335,
      "lng": 126.87555
    },
    "fileUrl": "/BCUser/facilitypic/1486800015757_1000000691_0.jpg"
  },
  {
    "id": "1000000195",
    "name": "당진중앙장례식장",
    "category": "FUNERAL_HOME",
    "address": "충청남도 당진시 송악읍 조비실길 47 (광명리)",
    "phone": "041-358-3000",
    "priceRange": {
      "min": 0,
      "max": 0
    },
    "hasParking": true,
    "coordinates": {
      "lat": 36.896927,
      "lng": 126.7200683
    },
    "fileUrl": "/BCUser/facilitypic/1486664384089_1000000195_0.jpg"
  },
  {
    "id": "7000000901",
    "name": "맑은샘병원장례식장",
    "category": "FUNERAL_HOME",
    "address": "경상남도 거제시 연초면 거제대로 4477 (연사리, 맑은샘병원)",
    "phone": "055-636-4800",
    "priceRange": {
      "min": 0,
      "max": 0
    },
    "hasParking": true,
    "coordinates": {
      "lat": 34.898012,
      "lng": 128.643777
    },
    "fileUrl": "/BCUser/facilitypic/1443220208980_7000000901_0.jpg"
  },
  {
    "id": "7000002064",
    "name": "한국보훈복지의료공단중앙보훈병원",
    "category": "FUNERAL_HOME",
    "address": "서울특별시 강동구 진황도로61길 53 (둔촌동, 중앙보훈병원)",
    "phone": "02-2225-1004",
    "priceRange": {
      "min": 0,
      "max": 0
    },
    "hasParking": true,
    "coordinates": {
      "lat": 37.527957,
      "lng": 127.147848
    },
    "fileUrl": "/BCUser/facilitypic/7000002064/1554264819404.jpg"
  },
  {
    "id": "7000001639",
    "name": "울산시티병원장례식장",
    "category": "FUNERAL_HOME",
    "address": "울산광역시 북구 산업로 1001, B1층 (연암동)",
    "phone": "052-280-8400",
    "priceRange": {
      "min": 0,
      "max": 0
    },
    "hasParking": true,
    "coordinates": {
      "lat": 35.583027,
      "lng": 129.35866
    },
    "fileUrl": "/BCUser/facilitypic/1494462995379_7000001639_0.jpg"
  },
  {
    "id": "7000002637",
    "name": "대구가톨릭대학교의료원 장례식장",
    "category": "FUNERAL_HOME",
    "address": "대구광역시 남구 두류공원로17길 33 (대명동, 대구가톨릭의과대학병원)",
    "phone": "053-650-4444",
    "priceRange": {
      "min": 0,
      "max": 0
    },
    "hasParking": true,
    "coordinates": {
      "lat": 35.843133,
      "lng": 128.568421
    },
    "fileUrl": "/BCUser/facilitypic/1662536517481.png"
  },
  {
    "id": "7000002402",
    "name": "대동병원장례식장",
    "category": "FUNERAL_HOME",
    "address": "부산광역시 동래구 충렬대로181번길 22 (지하1층, 2층) ",
    "phone": "051-550-9991",
    "priceRange": {
      "min": 0,
      "max": 0
    },
    "hasParking": true,
    "coordinates": {
      "lat": 35.2047092872,
      "lng": 129.0802705387
    },
    "fileUrl": "/BCUser/facilitypic/1597962104523_7000002402_0.JPG"
  },
  {
    "id": "1000000349",
    "name": "삼신전문장례식장",
    "category": "FUNERAL_HOME",
    "address": "부산광역시 사상구 대동로 261 (감전동)",
    "phone": "051-323-0044",
    "priceRange": {
      "min": 0,
      "max": 0
    },
    "hasParking": true,
    "coordinates": {
      "lat": 35.1508737,
      "lng": 128.985406
    },
    "fileUrl": "/BCUser/facilitypic/1605855789031_1000000349_0.jpg"
  },
  {
    "id": "1000000037",
    "name": "강원대학교병원장례식장",
    "category": "FUNERAL_HOME",
    "address": "강원도 춘천시 백령로 156 (효자동)",
    "phone": "033-254-5611",
    "priceRange": {
      "min": 0,
      "max": 0
    },
    "hasParking": true,
    "coordinates": {
      "lat": 37.875051,
      "lng": 127.745591
    },
    "fileUrl": "/BCUser/facilitypic/1000000037/1555317175361.jpg"
  },
  {
    "id": "1000000682",
    "name": "정읍아산병원장례식장",
    "category": "FUNERAL_HOME",
    "address": "전라북도 정읍시 충정로 606-22 (용계동)",
    "phone": "063-530-6644",
    "priceRange": {
      "min": 0,
      "max": 0
    },
    "hasParking": true,
    "coordinates": {
      "lat": 35.589586,
      "lng": 126.822439
    },
    "fileUrl": "/BCUser/facilitypic/1000000682/1554881816601.jpg"
  },
  {
    "id": "7000002171",
    "name": "고아농협 장례문화원",
    "category": "FUNERAL_HOME",
    "address": "경상북도 구미시 고아읍 오로4길 112 (오로리)",
    "phone": "054-482-7411",
    "priceRange": {
      "min": 0,
      "max": 0
    },
    "hasParking": true,
    "coordinates": {
      "lat": 36.219906,
      "lng": 128.325109
    },
    "fileUrl": "/BCUser/facilitypic/1694045514085.jpeg"
  },
  {
    "id": "1000000067",
    "name": "계명대학교동산병원백합원",
    "category": "FUNERAL_HOME",
    "address": "대구광역시 달서구 달구벌대로 1035 (신당동, 계명대학교동산병원)",
    "phone": "053-258-4444",
    "priceRange": {
      "min": 0,
      "max": 0
    },
    "hasParking": true,
    "coordinates": {
      "lat": 35.853462,
      "lng": 128.479815
    },
    "fileUrl": "/BCUser/facilitypic/1562986458815_1000000067_0.jpg"
  },
  {
    "id": "7000000289",
    "name": "해운대백병원장례식장",
    "category": "FUNERAL_HOME",
    "address": "부산광역시 해운대구 해운대로 875 (좌동, 인제대학교해운대백병원)",
    "phone": "051-893-4444",
    "priceRange": {
      "min": 0,
      "max": 0
    },
    "hasParking": true,
    "coordinates": {
      "lat": 35.1733441,
      "lng": 129.1822042
    },
    "fileUrl": "/BCUser/facilitypic/1481178293568_7000000289_0.JPG"
  },
  {
    "id": "1000000045",
    "name": "건국대학교병원장례식장",
    "category": "FUNERAL_HOME",
    "address": "서울특별시 광진구 능동로 120-1 (화양동)",
    "phone": "02-2030-7900",
    "priceRange": {
      "min": 0,
      "max": 0
    },
    "hasParking": true,
    "coordinates": {
      "lat": 37.5408245,
      "lng": 127.0722209
    },
    "fileUrl": "/BCUser/facilitypic/1000000045/1554355593217.png"
  },
  {
    "id": "1000000535",
    "name": "여의도성모장례식장",
    "category": "FUNERAL_HOME",
    "address": "서울특별시 영등포구 63로 10 (여의도동, 여의도성모병원)",
    "phone": "02-3779-1526",
    "priceRange": {
      "min": 0,
      "max": 0
    },
    "hasParking": true,
    "coordinates": {
      "lat": 37.5179713,
      "lng": 126.936089
    },
    "fileUrl": "/BCUser/facilitypic/1000000535/1554355262296.png"
  },
  {
    "id": "1000000233",
    "name": "동래봉생병원장례식장",
    "category": "FUNERAL_HOME",
    "address": "부산광역시 동래구 충렬대로348번길 23 (낙민동, 설봉빌딩)",
    "phone": "051-531-7100",
    "priceRange": {
      "min": 0,
      "max": 0
    },
    "hasParking": true,
    "coordinates": {
      "lat": 35.1971164,
      "lng": 129.0964074
    },
    "fileUrl": "/BCUser/facilitypic/1691391709962.jpg"
  },
  {
    "id": "7000002100",
    "name": "고신대병원 장례식장",
    "category": "FUNERAL_HOME",
    "address": "부산광역시 서구 감천로 262 (암남동, 고신대학교복음병원)",
    "phone": "051-990-6444",
    "priceRange": {
      "min": 0,
      "max": 0
    },
    "hasParking": false,
    "coordinates": {
      "lat": 35.080982,
      "lng": 129.015205
    },
    "fileUrl": "/BCUser/facilitypic/7000002100/1561612803706.jpg"
  },
  {
    "id": "7000002730",
    "name": "신세계장례식장",
    "category": "FUNERAL_HOME",
    "address": "경상남도 창원시 마산회원구 내서읍 죽암로 89 (호계리, 신세계요양병원)",
    "phone": "055-715-5444",
    "priceRange": {
      "min": 0,
      "max": 0
    },
    "hasParking": true,
    "coordinates": {
      "lat": 35.2599472584,
      "lng": 128.5091689565
    },
    "fileUrl": "/BCUser/facilitypic/1713656537516.jpg"
  },
  {
    "id": "7000002705",
    "name": "큰사랑요양병원장례식장",
    "category": "FUNERAL_HOME",
    "address": "경상남도 창원시 마산회원구 북성로 469 (두척동, 큰사랑요양병원)",
    "phone": "055-231-5444",
    "priceRange": {
      "min": 0,
      "max": 0
    },
    "hasParking": true,
    "coordinates": {
      "lat": 35.236301,
      "lng": 128.546919
    },
    "fileUrl": "/BCUser/facilitypic/1688796621762.jfif"
  },
  {
    "id": "1000000372",
    "name": "서산의료원상례원",
    "category": "FUNERAL_HOME",
    "address": "충청남도 서산시 중앙로 149 (석림동)",
    "phone": "041-689-7444",
    "priceRange": {
      "min": 0,
      "max": 0
    },
    "hasParking": true,
    "coordinates": {
      "lat": 36.77581,
      "lng": 126.465327
    },
    "fileUrl": "/BCUser/facilitypic/1000000372/1554257725200.jpg"
  },
  {
    "id": "7000002802",
    "name": "순천향서울장례식장",
    "category": "FUNERAL_HOME",
    "address": "서울특별시 용산구 대사관로 59 (한남동, 순천향대학병원)",
    "phone": "02-797-4444",
    "priceRange": {
      "min": 0,
      "max": 0
    },
    "hasParking": false,
    "coordinates": {
      "lat": 37.534438,
      "lng": 127.00457
    },
    "fileUrl": "/BCUser/facilitypic/7000002802/1721363520221.jfif"
  },
  {
    "id": "1000000875",
    "name": "한중프라임장례식장",
    "category": "FUNERAL_HOME",
    "address": "부산광역시 북구 낙동대로 1596 (구포동)",
    "phone": "051-305-4000",
    "priceRange": {
      "min": 0,
      "max": 0
    },
    "hasParking": true,
    "coordinates": {
      "lat": 35.1986789,
      "lng": 128.9904997
    },
    "fileUrl": "/BCUser/facilitypic/1000000875/1562897487049.jpg"
  },
  {
    "id": "1000000788",
    "name": "청주의료원장례식장",
    "category": "FUNERAL_HOME",
    "address": "충청북도 청주시 서원구 흥덕로 48 (사직동)",
    "phone": "043-279-0144",
    "priceRange": {
      "min": 0,
      "max": 0
    },
    "hasParking": true,
    "coordinates": {
      "lat": 36.641222,
      "lng": 127.473702
    },
    "fileUrl": "/BCUser/facilitypic/1000000788/1554273491427.jpg"
  },
  {
    "id": "1000000603",
    "name": "왜관병원장례식장",
    "category": "FUNERAL_HOME",
    "address": "경상북도 칠곡군 왜관읍 군청2길 10 (왜관리, 왜관병원)",
    "phone": "054-976-4446",
    "priceRange": {
      "min": 0,
      "max": 0
    },
    "hasParking": true,
    "coordinates": {
      "lat": 35.9961354,
      "lng": 128.4015608
    },
    "fileUrl": "/BCUser/facilitypic/1000000603/1564382516395.jpg"
  },
  {
    "id": "7000002387",
    "name": "춘천장례식장",
    "category": "FUNERAL_HOME",
    "address": "강원특별자치도 춘천시 동면 소양강로 409 (장학리)",
    "phone": "033-256-4444",
    "priceRange": {
      "min": 0,
      "max": 0
    },
    "hasParking": true,
    "coordinates": {
      "lat": 37.920044,
      "lng": 127.755258
    },
    "fileUrl": "/BCUser/facilitypic/1589166239816_7000002387_0.jpg"
  },
  {
    "id": "7000002174",
    "name": "삼봉장례식장",
    "category": "FUNERAL_HOME",
    "address": "전라북도 완주군 삼례읍 과학로 466 (신탁리)",
    "phone": "063-261-4445",
    "priceRange": {
      "min": 0,
      "max": 0
    },
    "hasParking": true,
    "coordinates": {
      "lat": 35.91026,
      "lng": 127.125673
    },
    "fileUrl": "/BCUser/facilitypic/7000002174/1555488699327.jpg"
  },
  {
    "id": "7000002235",
    "name": "부산백병원 장례식장",
    "category": "FUNERAL_HOME",
    "address": "부산광역시 부산진구 복지로 75 (개금동, 부산백병원)",
    "phone": "051-896-4444",
    "priceRange": {
      "min": 0,
      "max": 0
    },
    "hasParking": true,
    "coordinates": {
      "lat": 35.14625,
      "lng": 129.020908
    },
    "fileUrl": "/BCUser/facilitypic/7000002235/1562897130510.jpg"
  },
  {
    "id": "7000001970",
    "name": "구미푸른요양병원장례식장",
    "category": "FUNERAL_HOME",
    "address": "경상북도 구미시 장천면 산호대로 1391 (하장리)",
    "phone": "054-474-4443",
    "priceRange": {
      "min": 0,
      "max": 0
    },
    "hasParking": true,
    "coordinates": {
      "lat": 36.1365413,
      "lng": 128.4800816
    },
    "fileUrl": "/BCUser/facilitypic/7000001970/1563514982534.jpg"
  },
  {
    "id": "1000000718",
    "name": "합천추모공원장례식장",
    "category": "FUNERAL_HOME",
    "address": "경상남도 합천군 합천읍 합천호수로 1613 (합천리)",
    "phone": "055-934-4444",
    "priceRange": {
      "min": 0,
      "max": 0
    },
    "hasParking": false,
    "coordinates": {
      "lat": 35.565937,
      "lng": 128.145269
    },
    "fileUrl": "/BCUser/facilitypic/1000000718/1560321354411.jpg"
  },
  {
    "id": "1000000659",
    "name": "일산백장례서비스(주)",
    "category": "FUNERAL_HOME",
    "address": "경기도 고양시 일산서구 주화로 170,일산백병원B2층 (대화동)",
    "phone": "031-910-7444",
    "priceRange": {
      "min": 0,
      "max": 0
    },
    "hasParking": true,
    "coordinates": {
      "lat": 37.6742288,
      "lng": 126.750367
    },
    "fileUrl": "/BCUser/facilitypic/1000000659/1555652473900.jpg"
  },
  {
    "id": "1000000318",
    "name": "부산성모병원장례식장",
    "category": "FUNERAL_HOME",
    "address": "부산광역시 남구 용호로232번길 25-14 (용호동)",
    "phone": "051-933-7480",
    "priceRange": {
      "min": 0,
      "max": 0
    },
    "hasParking": true,
    "coordinates": {
      "lat": 35.110167,
      "lng": 129.1092
    },
    "fileUrl": "/BCUser/facilitypic/1000000318/1556500678238.jpg"
  },
  {
    "id": "1000000253",
    "name": "삼성창원병원장례식장",
    "category": "FUNERAL_HOME",
    "address": "경상남도 창원시 마산회원구 팔용로 158 (합성동, 삼성창원병원)",
    "phone": "055-233-5131",
    "priceRange": {
      "min": 0,
      "max": 0
    },
    "hasParking": true,
    "coordinates": {
      "lat": 35.242351,
      "lng": 128.593019
    },
    "fileUrl": "/BCUser/facilitypic/1713249589629.jpg"
  },
  {
    "id": "1000000587",
    "name": "예천농협장례식장",
    "category": "FUNERAL_HOME",
    "address": "경상북도 예천군 예천읍 양궁로 154 (청복리)",
    "phone": "054-655-0990",
    "priceRange": {
      "min": 0,
      "max": 0
    },
    "hasParking": true,
    "coordinates": {
      "lat": 36.640004,
      "lng": 128.465477
    },
    "fileUrl": "/BCUser/facilitypic/1711944654828.jpeg"
  },
  {
    "id": "1000000103",
    "name": "괴정병원장례식장",
    "category": "FUNERAL_HOME",
    "address": "부산광역시 사하구 낙동대로249번길 11 (괴정동)",
    "phone": "051-293-4382",
    "priceRange": {
      "min": 0,
      "max": 0
    },
    "hasParking": true,
    "coordinates": {
      "lat": 35.0988856,
      "lng": 128.9903704
    },
    "fileUrl": "/BCUser/facilitypic/1000000103/1561613349917.jpg"
  },
  {
    "id": "1000000327",
    "name": "부천성모병원장례식장",
    "category": "FUNERAL_HOME",
    "address": "경기도 부천시 원미구 소사로 327 (소사동, 가톨릭대부천성모병원)",
    "phone": "032-340-7300",
    "priceRange": {
      "min": 0,
      "max": 0
    },
    "hasParking": true,
    "coordinates": {
      "lat": 37.4869907,
      "lng": 126.7925731
    },
    "fileUrl": "/BCUser/facilitypic/1466645271213_1000000327_0.jpg"
  },
  {
    "id": "1000000023",
    "name": "강동성심병원장례식장",
    "category": "FUNERAL_HOME",
    "address": "서울특별시 강동구 성안로 150 (길동, 강동성심병원)",
    "phone": "02-470-1692",
    "priceRange": {
      "min": 0,
      "max": 0
    },
    "hasParking": true,
    "coordinates": {
      "lat": 37.5361,
      "lng": 127.1353505
    },
    "fileUrl": "/BCUser/facilitypic/1000000023/1474975523016.jpg"
  },
  {
    "id": "7000001971",
    "name": "구미천사요양병원장례식장",
    "category": "FUNERAL_HOME",
    "address": "경상북도 구미시 고아읍 이례로 46 (이례리)",
    "phone": "054-481-4441",
    "priceRange": {
      "min": 0,
      "max": 0
    },
    "hasParking": true,
    "coordinates": {
      "lat": 36.205677,
      "lng": 128.3205239
    },
    "fileUrl": "/BCUser/facilitypic/1531888394644_7000001971_0.jpg"
  },
  {
    "id": "7000002592",
    "name": "구미제일요양병원장례식장",
    "category": "FUNERAL_HOME",
    "address": "경상북도 구미시 고아읍 선산대로 1116 (오로리, 제일병원)",
    "phone": "054-481-1900",
    "priceRange": {
      "min": 0,
      "max": 0
    },
    "hasParking": true,
    "coordinates": {
      "lat": 36.217149,
      "lng": 128.316105
    },
    "fileUrl": "/BCUser/facilitypic/7000002592/1709687959835.PNG"
  },
  {
    "id": "7000002607",
    "name": "(주)착한전문장례식장",
    "category": "FUNERAL_HOME",
    "address": "부산광역시 동래구 반송로 183 (낙민동, RP안락점)",
    "phone": "051-987-1024",
    "priceRange": {
      "min": 0,
      "max": 0
    },
    "hasParking": true,
    "coordinates": {
      "lat": 35.198008,
      "lng": 129.09537
    },
    "fileUrl": "/BCUser/facilitypic/1715845842469.jpg"
  },
  {
    "id": "1000000057",
    "name": "경주전문장례식장",
    "category": "FUNERAL_HOME",
    "address": "경상북도 경주시 유림로97번길 45 (황성동)",
    "phone": "054-744-4000",
    "priceRange": {
      "min": 0,
      "max": 0
    },
    "hasParking": true,
    "coordinates": {
      "lat": 35.8721264,
      "lng": 129.2224867
    },
    "fileUrl": "/BCUser/facilitypic/1000000057/1560322750181.jpg"
  },
  {
    "id": "1000000750",
    "name": "진도군산림조합직영추모관장례식장",
    "category": "FUNERAL_HOME",
    "address": "전라남도 진도군 진도읍 진도대로 7143-10 (쌍정리)",
    "phone": "061-543-4040",
    "priceRange": {
      "min": 0,
      "max": 0
    },
    "hasParking": true,
    "coordinates": {
      "lat": 34.4783883,
      "lng": 126.2659666
    },
    "fileUrl": "/BCUser/facilitypic/1465952303316_1000000750_0.JPG"
  },
  {
    "id": "1000000051",
    "name": "경북대학교병원장례식장",
    "category": "FUNERAL_HOME",
    "address": "대구광역시 중구 동덕로 130 (삼덕동2가, 경북대학교병원)",
    "phone": "053-200-6464",
    "priceRange": {
      "min": 0,
      "max": 0
    },
    "hasParking": true,
    "coordinates": {
      "lat": 35.865942,
      "lng": 128.6051356
    },
    "fileUrl": "/BCUser/facilitypic/1000000051/1554969054824.jpg"
  },
  {
    "id": "7000002573",
    "name": "인천가족공원장례식장",
    "category": "FUNERAL_HOME",
    "address": "인천광역시 남동구 만월북로 115 (간석동, 인천가족공원장례식장)",
    "phone": "032-501-1925",
    "priceRange": {
      "min": 0,
      "max": 0
    },
    "hasParking": true,
    "coordinates": {
      "lat": 37.475336,
      "lng": 126.715008
    },
    "fileUrl": "/BCUser/facilitypic/1633059661299.jpg"
  },
  {
    "id": "7000002143",
    "name": "교원예움 화성장례식장",
    "category": "FUNERAL_HOME",
    "address": "경기도 화성시 마도면 쌍송북로 111 (두곡리)",
    "phone": "031-355-8000",
    "priceRange": {
      "min": 0,
      "max": 0
    },
    "hasParking": true,
    "coordinates": {
      "lat": 37.201729,
      "lng": 126.788063
    },
    "fileUrl": "/BCUser/facilitypic/7000002143/1579507836538.jpg"
  },
  {
    "id": "7000000034",
    "name": "학교법인영산학원 산본장례식장",
    "category": "FUNERAL_HOME",
    "address": "경기도 군포시 산본로 321 (산본동,원광대산본병원)",
    "phone": "031-395-4438",
    "priceRange": {
      "min": 0,
      "max": 0
    },
    "hasParking": true,
    "coordinates": {
      "lat": 37.3593764,
      "lng": 126.9335943
    },
    "fileUrl": "/BCUser/facilitypic/7000000034/1555984933204.jpg"
  },
  {
    "id": "1000000554",
    "name": "영남대학교의료원 장례식장",
    "category": "FUNERAL_HOME",
    "address": "대구광역시 남구 현충로 170 (대명동)",
    "phone": "053-620-4670",
    "priceRange": {
      "min": 0,
      "max": 0
    },
    "hasParking": true,
    "coordinates": {
      "lat": 35.847825,
      "lng": 128.584982
    },
    "fileUrl": "/BCUser/facilitypic/1000000554/1561093998243.png"
  },
  {
    "id": "1000000244",
    "name": "동의의료원장례식장",
    "category": "FUNERAL_HOME",
    "address": "부산광역시 부산진구 양정로 62,1층 (양정동,동의의료원) ",
    "phone": "051-866-3757",
    "priceRange": {
      "min": 0,
      "max": 0
    },
    "hasParking": true,
    "coordinates": {
      "lat": 35.170295,
      "lng": 129.076941
    },
    "fileUrl": "/BCUser/facilitypic/1751945747555.jpg"
  },
  {
    "id": "1000000113",
    "name": "국립중앙의료원 장례식장",
    "category": "FUNERAL_HOME",
    "address": "서울특별시 중구 을지로 245 (을지로6가, 국립중앙의료원)",
    "phone": "02-2262-4800",
    "priceRange": {
      "min": 0,
      "max": 0
    },
    "hasParking": true,
    "coordinates": {
      "lat": 37.5674232,
      "lng": 127.0059029
    },
    "fileUrl": "/BCUser/facilitypic/1000000113/1554194357834.jpg"
  },
  {
    "id": "7000001023",
    "name": "만평장례식장",
    "category": "FUNERAL_HOME",
    "address": "광주광역시 광산구 임방울대로 24 (우산동)",
    "phone": "062-611-0000",
    "priceRange": {
      "min": 0,
      "max": 0
    },
    "hasParking": true,
    "coordinates": {
      "lat": 35.1633393,
      "lng": 126.8194148
    },
    "fileUrl": "/BCUser/facilitypic/7000001023/1564464470906.jpg"
  },
  {
    "id": "7000000444",
    "name": "성심장례식장",
    "category": "FUNERAL_HOME",
    "address": "대전광역시 서구 갑천도시고속도로 1893 (월평동)",
    "phone": "042-522-4494",
    "priceRange": {
      "min": 0,
      "max": 0
    },
    "hasParking": true,
    "coordinates": {
      "lat": 36.350225,
      "lng": 127.351609
    },
    "fileUrl": "/BCUser/facilitypic/7000000444/1563951646463.png"
  },
  {
    "id": "1000000215",
    "name": "대한장례식장",
    "category": "FUNERAL_HOME",
    "address": "전라북도 전주시 완산구 구이로 2050. 대한장례식장 (평화동3가)",
    "phone": "063-227-4444",
    "priceRange": {
      "min": 0,
      "max": 0
    },
    "hasParking": true,
    "coordinates": {
      "lat": 35.7809413,
      "lng": 127.1307088
    },
    "fileUrl": "/BCUser/facilitypic/1000000215/1555490699872.png"
  },
  {
    "id": "1000000513",
    "name": "안동의료원 장례식장 국화원",
    "category": "FUNERAL_HOME",
    "address": "경상북도 안동시 태사2길 55,안동의료원 (북문동)",
    "phone": "054-850-6440",
    "priceRange": {
      "min": 0,
      "max": 0
    },
    "hasParking": true,
    "coordinates": {
      "lat": 36.568004,
      "lng": 128.732869
    },
    "fileUrl": "/BCUser/facilitypic/1465962432201_1000000513_0.JPG"
  },
  {
    "id": "7000002416",
    "name": "교원예움 서서울장례식장",
    "category": "FUNERAL_HOME",
    "address": "서울특별시 영등포구 선유로 101,교원예움서서울장례식장 (양평동1가)",
    "phone": "02-2676-4444",
    "priceRange": {
      "min": 0,
      "max": 0
    },
    "hasParking": true,
    "coordinates": {
      "lat": 37.523057,
      "lng": 126.889975
    },
    "fileUrl": "/BCUser/facilitypic/1685675779395.JPG"
  },
  {
    "id": "7000002167",
    "name": "사하구민장례식장",
    "category": "FUNERAL_HOME",
    "address": "부산광역시 사하구 하신중앙로17번길 25 (장림동)",
    "phone": "051-715-4441",
    "priceRange": {
      "min": 0,
      "max": 0
    },
    "hasParking": true,
    "coordinates": {
      "lat": 35.080704,
      "lng": 128.9619
    },
    "fileUrl": "/BCUser/facilitypic/1549145076934_7000002167_0.jpg"
  },
  {
    "id": "1000000909",
    "name": "홍성의료원장례식장",
    "category": "FUNERAL_HOME",
    "address": "충청남도 홍성군 홍성읍 조양로 224 (고암리)",
    "phone": "041-630-6244",
    "priceRange": {
      "min": 0,
      "max": 0
    },
    "hasParking": true,
    "coordinates": {
      "lat": 36.5988023,
      "lng": 126.6743322
    },
    "fileUrl": "/BCUser/facilitypic/1000000909/1554269261360.jpg"
  },
  {
    "id": "1000000229",
    "name": "동국대학교경주병원장례식장",
    "category": "FUNERAL_HOME",
    "address": "경상북도 경주시 동대로 87 (석장동)",
    "phone": "054-770-8333",
    "priceRange": {
      "min": 0,
      "max": 0
    },
    "hasParking": true,
    "coordinates": {
      "lat": 35.858607,
      "lng": 129.193041
    },
    "fileUrl": "/BCUser/facilitypic/1000000229/1563512989783.jpg"
  },
  {
    "id": "1000000382",
    "name": "서울성모장례식장",
    "category": "FUNERAL_HOME",
    "address": "서울특별시 서초구 반포대로 222 (반포동, 가톨릭대학교성의교정)",
    "phone": "02-2258-5940",
    "priceRange": {
      "min": 0,
      "max": 0
    },
    "hasParking": true,
    "coordinates": {
      "lat": 37.500612,
      "lng": 127.0051811
    },
    "fileUrl": "/BCUser/facilitypic/1504744615382_1000000382_0.JPG"
  },
  {
    "id": "1000000308",
    "name": "좌천봉생병원장례식장",
    "category": "FUNERAL_HOME",
    "address": "부산광역시 동구 중앙대로 401 (좌천동)",
    "phone": "051-638-4411",
    "priceRange": {
      "min": 0,
      "max": 0
    },
    "hasParking": true,
    "coordinates": {
      "lat": 35.1309523,
      "lng": 129.0503957
    },
    "fileUrl": "/BCUser/facilitypic/1000000308/1556500401351.jpg"
  },
  {
    "id": "7000002268",
    "name": "대구시민전문장례식장",
    "category": "FUNERAL_HOME",
    "address": "대구광역시 북구 호국로 898 (동호동)",
    "phone": "053-324-4444",
    "priceRange": {
      "min": 0,
      "max": 0
    },
    "hasParking": true,
    "coordinates": {
      "lat": 35.960626,
      "lng": 128.557332
    },
    "fileUrl": "/BCUser/facilitypic/1574073372605_7000002268_0.jpg"
  },
  {
    "id": "7000002076",
    "name": "서해장례문화원",
    "category": "FUNERAL_HOME",
    "address": "인천광역시 강화군 강화읍 중앙로74번길 10 (남산리)",
    "phone": "032-933-4463",
    "priceRange": {
      "min": 0,
      "max": 0
    },
    "hasParking": true,
    "coordinates": {
      "lat": 37.736302,
      "lng": 126.486752
    },
    "fileUrl": "/BCUser/facilitypic/7000002076/1536993494835.jpg"
  },
  {
    "id": "1000000589",
    "name": "오산장례문화원",
    "category": "FUNERAL_HOME",
    "address": "경기도 오산시 경기동로 125 (부산동)",
    "phone": "031-375-1100",
    "priceRange": {
      "min": 0,
      "max": 0
    },
    "hasParking": true,
    "coordinates": {
      "lat": 37.1593778,
      "lng": 127.0856601
    },
    "fileUrl": "/BCUser/facilitypic/1497445120114_1000000589_0.JPG"
  },
  {
    "id": "7000000959",
    "name": "근로복지공단 태백병원장례식장",
    "category": "FUNERAL_HOME",
    "address": "강원도 태백시 보드미길 8 (장성동, 근로복지공단태백병원)",
    "phone": "033-581-4444",
    "priceRange": {
      "min": 0,
      "max": 0
    },
    "hasParking": true,
    "coordinates": {
      "lat": 37.104291,
      "lng": 129.003421
    },
    "fileUrl": "/BCUser/facilitypic/7000000959/1555484819051.jpg"
  },
  {
    "id": "1000000649",
    "name": "인제대학교상계백병원장례식장",
    "category": "FUNERAL_HOME",
    "address": "서울특별시 노원구 동일로 1342 (상계동, 상계백병원)",
    "phone": "02-938-5320",
    "priceRange": {
      "min": 0,
      "max": 0
    },
    "hasParking": true,
    "coordinates": {
      "lat": 37.6486101,
      "lng": 127.0630785
    },
    "fileUrl": "/BCUser/facilitypic/1000000649/1554360847656.png"
  },
  {
    "id": "1000000913",
    "name": "홍천군장례식장",
    "category": "FUNERAL_HOME",
    "address": "강원도 홍천군 홍천읍 느리울길 70 (하오안리)",
    "phone": "033-436-1919",
    "priceRange": {
      "min": 0,
      "max": 0
    },
    "hasParking": true,
    "coordinates": {
      "lat": 37.678681,
      "lng": 127.853175
    },
    "fileUrl": "/BCUser/facilitypic/1000000913/1555484986024.jpg"
  },
  {
    "id": "1000000770",
    "name": "천안의료원장례식장",
    "category": "FUNERAL_HOME",
    "address": "충청남도 천안시 동남구 충절로 537 (삼룡동)",
    "phone": "041-570-7099",
    "priceRange": {
      "min": 0,
      "max": 0
    },
    "hasParking": true,
    "coordinates": {
      "lat": 36.775709,
      "lng": 127.179663
    },
    "fileUrl": "/BCUser/facilitypic/1414656344047_1000000770_0.jpg"
  },
  {
    "id": "1000000854",
    "name": "한도병원장례식장",
    "category": "FUNERAL_HOME",
    "address": "경기도 안산시 단원구 선부광장로 103 (선부동)",
    "phone": "031-485-4422",
    "priceRange": {
      "min": 0,
      "max": 0
    },
    "hasParking": true,
    "coordinates": {
      "lat": 37.334018,
      "lng": 126.8076137
    },
    "fileUrl": "/BCUser/facilitypic/1749356398331.jpg"
  },
  {
    "id": "1000000440",
    "name": "부천시민장례식장",
    "category": "FUNERAL_HOME",
    "address": "경기도 부천시 원미구 장말로372번길 15 (심곡동)",
    "phone": "032-666-4440",
    "priceRange": {
      "min": 0,
      "max": 0
    },
    "hasParking": true,
    "coordinates": {
      "lat": 37.4892975,
      "lng": 126.7832874
    },
    "fileUrl": "/BCUser/facilitypic/1000000440/1556501386730.jpg"
  },
  {
    "id": "7000000799",
    "name": "안산시민장례문화원",
    "category": "FUNERAL_HOME",
    "address": "경기도 안산시 단원구 원곡공원로 11-9 (원곡동)",
    "phone": "031-495-4000",
    "priceRange": {
      "min": 0,
      "max": 0
    },
    "hasParking": true,
    "coordinates": {
      "lat": 37.3341841,
      "lng": 126.7927213
    },
    "fileUrl": "/BCUser/facilitypic/1493120504050_7000000799_0.jpg"
  },
  {
    "id": "7000002404",
    "name": "선산 국화원 전문 장례식장",
    "category": "FUNERAL_HOME",
    "address": "경상북도 구미시 선산읍 선산대로 1269 (화조리)",
    "phone": "054-481-2929",
    "priceRange": {
      "min": 0,
      "max": 0
    },
    "hasParking": true,
    "coordinates": {
      "lat": 36.228982,
      "lng": 128.307282
    },
    "fileUrl": "/BCUser/facilitypic/1601957764427_7000002404_0.jpg"
  },
  {
    "id": "7000002770",
    "name": "새로운장례식장",
    "category": "FUNERAL_HOME",
    "address": "충청북도 충주시 중심3길 5 (문화동, 새로운병원장례식장)",
    "phone": "043-853-9300",
    "priceRange": {
      "min": 0,
      "max": 0
    },
    "hasParking": true,
    "coordinates": {
      "lat": 36.973541,
      "lng": 127.925938
    },
    "fileUrl": "/BCUser/facilitypic/1708677879902.JPG"
  },
  {
    "id": "1000000228",
    "name": "동국대학교일산장례식장",
    "category": "FUNERAL_HOME",
    "address": "경기도 고양시 일산동구 동국로 27 (식사동, 동국대학교일산병원)",
    "phone": "031-961-9400",
    "priceRange": {
      "min": 0,
      "max": 0
    },
    "hasParking": true,
    "coordinates": {
      "lat": 37.6763007,
      "lng": 126.8067038
    },
    "fileUrl": "/BCUser/facilitypic/1000000228/1554278816283.jpg"
  },
  {
    "id": "1000000494",
    "name": "신화장례식장",
    "category": "FUNERAL_HOME",
    "address": "서울특별시 영등포구 영중로 100 (영등포동7가, 신화요양병원)",
    "phone": "02-2679-1122",
    "priceRange": {
      "min": 0,
      "max": 0
    },
    "hasParking": true,
    "coordinates": {
      "lat": 37.525046,
      "lng": 126.9059758
    },
    "fileUrl": "/BCUser/facilitypic/1748328017890.jpg"
  },
  {
    "id": "1000000208",
    "name": "대송장례식장",
    "category": "FUNERAL_HOME",
    "address": "전라북도 전주시 덕진구 동부대로 1015 (송천동2가)",
    "phone": "063-274-4300",
    "priceRange": {
      "min": 0,
      "max": 0
    },
    "hasParking": true,
    "coordinates": {
      "lat": 35.868753,
      "lng": 127.136402
    },
    "fileUrl": "/BCUser/facilitypic/1510708881353_1000000208_0.jpg"
  },
  {
    "id": "1000000100",
    "name": "프라임장례원",
    "category": "FUNERAL_HOME",
    "address": "부산광역시 동래구 미남로146번길 11 (온천동, 광혜병원장례식장)",
    "phone": "051-506-1022",
    "priceRange": {
      "min": 0,
      "max": 0
    },
    "hasParking": true,
    "coordinates": {
      "lat": 35.206913,
      "lng": 129.071135
    },
    "fileUrl": "/BCUser/facilitypic/1000000100/1556501276416.jpg"
  },
  {
    "id": "7000000041",
    "name": "순천향부천장례식장",
    "category": "FUNERAL_HOME",
    "address": "경기도 부천시 원미구 조마루로 170 (중동, 순천향대학교부천병원)",
    "phone": "032-327-3060",
    "priceRange": {
      "min": 0,
      "max": 0
    },
    "hasParking": true,
    "coordinates": {
      "lat": 37.498168,
      "lng": 126.762841
    },
    "fileUrl": "/BCUser/facilitypic/1471915626197_7000000041_0.jpg"
  },
  {
    "id": "7000001947",
    "name": "행복한병원장례식장",
    "category": "FUNERAL_HOME",
    "address": "경상남도 창원시 의창구 북면 천주로 785,행복한병원장례식장 (동전리, 행복한병원)",
    "phone": "055-255-0220",
    "priceRange": {
      "min": 0,
      "max": 0
    },
    "hasParking": true,
    "coordinates": {
      "lat": 35.323461,
      "lng": 128.601631
    },
    "fileUrl": "/BCUser/facilitypic/7000001947/1536989691235.jpg"
  },
  {
    "id": "7000001627",
    "name": "고성제일요양병원장례식장",
    "category": "FUNERAL_HOME",
    "address": "경상남도 고성군 고성읍 남해안대로 2514 (율대리)",
    "phone": "055-804-8400",
    "priceRange": {
      "min": 0,
      "max": 0
    },
    "hasParking": true,
    "coordinates": {
      "lat": 34.968248,
      "lng": 128.335731
    },
    "fileUrl": "/BCUser/facilitypic/7000001627/1560313940963.jpg"
  },
  {
    "id": "7000001087",
    "name": "(주)장례식장아시아드 ",
    "category": "FUNERAL_HOME",
    "address": "부산광역시 동래구 여고로 42 (사직동)",
    "phone": "051-503-0770",
    "priceRange": {
      "min": 0,
      "max": 0
    },
    "hasParking": true,
    "coordinates": {
      "lat": 35.1953616,
      "lng": 129.0685563
    },
    "fileUrl": "/BCUser/facilitypic/1465798299672_7000001087_0.JPG"
  },
  {
    "id": "1000000405",
    "name": "성가롤로병원장례식장",
    "category": "FUNERAL_HOME",
    "address": "전라남도 순천시 순광로 221 (조례동, 성가롤로병원)",
    "phone": "061-900-4444",
    "priceRange": {
      "min": 0,
      "max": 0
    },
    "hasParking": true,
    "coordinates": {
      "lat": 34.964416,
      "lng": 127.541476
    },
    "fileUrl": "/BCUser/facilitypic/1409815921657_1000000405_0.jpg"
  },
  {
    "id": "1000000561",
    "name": "영등포장례식장",
    "category": "FUNERAL_HOME",
    "address": "서울특별시 영등포구 당산로31길 6 (당산동3가, 영등포병원)",
    "phone": "02-2679-4444",
    "priceRange": {
      "min": 0,
      "max": 0
    },
    "hasParking": true,
    "coordinates": {
      "lat": 37.5268013,
      "lng": 126.8959163
    },
    "fileUrl": "/BCUser/facilitypic/1487232765099_1000000561_0.jpg"
  },
  {
    "id": "7000001194",
    "name": "나눔병원장례식장",
    "category": "FUNERAL_HOME",
    "address": "경기도 남양주시 오남읍 진건오남로797번길 9 (양지리, 우리병원)",
    "phone": "031-574-4442",
    "priceRange": {
      "min": 0,
      "max": 0
    },
    "hasParking": true,
    "coordinates": {
      "lat": 37.698,
      "lng": 127.201372
    },
    "fileUrl": "/BCUser/facilitypic/1624424009223.jpg"
  },
  {
    "id": "7000002285",
    "name": "쉴낙원 경기장례식장",
    "category": "FUNERAL_HOME",
    "address": "경기도 용인시 수지구 포은대로 836 (죽전동, 용인쉴낙원)",
    "phone": "031-672-1009",
    "priceRange": {
      "min": 0,
      "max": 0
    },
    "hasParking": true,
    "coordinates": {
      "lat": 37.327929,
      "lng": 127.139553
    },
    "fileUrl": "/BCUser/facilitypic/1577976452587_7000002285_0.PNG"
  },
  {
    "id": "7000002775",
    "name": "보람세민에스장례식장",
    "category": "FUNERAL_HOME",
    "address": "울산광역시 중구 내황4길 11보람세민에스장례식장 (반구동)",
    "phone": "052-285-3905",
    "priceRange": {
      "min": 0,
      "max": 0
    },
    "hasParking": true,
    "coordinates": {
      "lat": 35.552776,
      "lng": 129.341679
    },
    "fileUrl": "/BCUser/facilitypic/7000002775/1710751695760.jpg"
  },
  {
    "id": "7000002406",
    "name": "국제성모장례식장",
    "category": "FUNERAL_HOME",
    "address": "인천광역시 서구 심곡로100번길 25 (심곡동, 인천국제성모병원)",
    "phone": "032-290-3501",
    "priceRange": {
      "min": 0,
      "max": 0
    },
    "hasParking": true,
    "coordinates": {
      "lat": 37.542691,
      "lng": 126.684109
    },
    "fileUrl": "/BCUser/facilitypic/1614067203119.jpg"
  },
  {
    "id": "1000000050",
    "name": "경남요양병원장례식장",
    "category": "FUNERAL_HOME",
    "address": "경상남도 창녕군 남지읍 남지중앙로 45 (남지리)",
    "phone": "055-526-2575",
    "priceRange": {
      "min": 0,
      "max": 0
    },
    "hasParking": true,
    "coordinates": {
      "lat": 35.391256,
      "lng": 128.474957
    },
    "fileUrl": "/BCUser/facilitypic/1000000050/1554863977789.png"
  },
  {
    "id": "1000000847",
    "name": "한강성심병원장례식장",
    "category": "FUNERAL_HOME",
    "address": "서울특별시 영등포구 국회대로56길 18,한강성심병원5별관지하1층 (영등포동7가, 한강성심병원)",
    "phone": "02-2633-4455",
    "priceRange": {
      "min": 0,
      "max": 0
    },
    "hasParking": true,
    "coordinates": {
      "lat": 37.523134,
      "lng": 126.9096815
    },
    "fileUrl": "/BCUser/facilitypic/1650171561910.jpg"
  },
  {
    "id": "7000001472",
    "name": "구미가톨릭요양병원장례식장",
    "category": "FUNERAL_HOME",
    "address": "경상북도 구미시 야은로 483 (도량동)",
    "phone": "054-442-2323",
    "priceRange": {
      "min": 0,
      "max": 0
    },
    "hasParking": true,
    "coordinates": {
      "lat": 36.1348639,
      "lng": 128.335575
    },
    "fileUrl": "/BCUser/facilitypic/1702274208466.jpg"
  },
  {
    "id": "7000002536",
    "name": "금사장례식장",
    "category": "FUNERAL_HOME",
    "address": "부산광역시 금정구 반송로 470 (금사동)",
    "phone": "051-977-4445",
    "priceRange": {
      "min": 0,
      "max": 0
    },
    "hasParking": true,
    "coordinates": {
      "lat": 35.215552,
      "lng": 129.115238
    },
    "fileUrl": "/BCUser/facilitypic/1620701356045.jpg"
  },
  {
    "id": "1000000287",
    "name": "서울좋은병원장례식장",
    "category": "FUNERAL_HOME",
    "address": "서울특별시 강북구 도봉로 114 (미아동)",
    "phone": "02-984-5000",
    "priceRange": {
      "min": 0,
      "max": 0
    },
    "hasParking": true,
    "coordinates": {
      "lat": 37.6192633,
      "lng": 127.0293815
    },
    "fileUrl": "/BCUser/facilitypic/1000000287/1554355106082.png"
  },
  {
    "id": "1000000181",
    "name": "뉴타운장례식장",
    "category": "FUNERAL_HOME",
    "address": "서울특별시 성북구 종암로 199 (하월곡동)",
    "phone": "02-909-4444",
    "priceRange": {
      "min": 0,
      "max": 0
    },
    "hasParking": true,
    "coordinates": {
      "lat": 37.6075681,
      "lng": 127.0303943
    },
    "fileUrl": "/BCUser/facilitypic/1000000181/1554353700112.png"
  },
  {
    "id": "1000000211",
    "name": "대전장례식장",
    "category": "FUNERAL_HOME",
    "address": "대전광역시 서구 갑천도시고속도로 1895 (월평동)",
    "phone": "042-522-4444",
    "priceRange": {
      "min": 0,
      "max": 0
    },
    "hasParking": true,
    "coordinates": {
      "lat": 36.3495373,
      "lng": 127.3513637
    },
    "fileUrl": "/BCUser/facilitypic/1000000211/1559105955018.jpg"
  },
  {
    "id": "7000002368",
    "name": "연세대학교 용인장례식장",
    "category": "FUNERAL_HOME",
    "address": "경기도 용인시 기흥구 동백죽전대로 363 (중동)",
    "phone": "031-678-7600",
    "priceRange": {
      "min": 0,
      "max": 0
    },
    "hasParking": true,
    "coordinates": {
      "lat": 37.270588,
      "lng": 127.144385
    },
    "fileUrl": "/BCUser/facilitypic/1583188917826_7000002368_0.png"
  },
  {
    "id": "1000000747",
    "name": "중앙U병원장례식장",
    "category": "FUNERAL_HOME",
    "address": "부산광역시 사하구 감천로 59 (감천동)",
    "phone": "051-201-0468",
    "priceRange": {
      "min": 0,
      "max": 0
    },
    "hasParking": true,
    "coordinates": {
      "lat": 35.0904694,
      "lng": 128.9991419
    },
    "fileUrl": "/BCUser/facilitypic/1000000747/1563429784838.jpg"
  },
  {
    "id": "1000000388",
    "name": "서울적십자병원장례식장",
    "category": "FUNERAL_HOME",
    "address": "서울특별시 종로구 새문안로 9 (평동, 적십자병원)",
    "phone": "02-2002-8444",
    "priceRange": {
      "min": 0,
      "max": 0
    },
    "hasParking": true,
    "coordinates": {
      "lat": 37.5671402,
      "lng": 126.9670566
    },
    "fileUrl": "/BCUser/facilitypic/1000000388/1554356063658.png"
  },
  {
    "id": "1000000381",
    "name": "복지장례문화원",
    "category": "FUNERAL_HOME",
    "address": "서울특별시 영등포구 도림로 142 (대림동)",
    "phone": "02-846-4444",
    "priceRange": {
      "min": 0,
      "max": 0
    },
    "hasParking": true,
    "coordinates": {
      "lat": 37.493197,
      "lng": 126.897887
    },
    "fileUrl": "/BCUser/facilitypic/1756704557299.png"
  },
  {
    "id": "7000002539",
    "name": "창원한마음병원장례식장",
    "category": "FUNERAL_HOME",
    "address": "경상남도 창원시 의창구 용동로57번길 8 (사림동, 창원한마음병원)",
    "phone": "055-225-1200",
    "priceRange": {
      "min": 0,
      "max": 0
    },
    "hasParking": true,
    "coordinates": {
      "lat": 35.238131,
      "lng": 128.699081
    },
    "fileUrl": "/BCUser/facilitypic/1668992928899.jpg"
  },
  {
    "id": "7000001466",
    "name": "세광병원장례식장",
    "category": "FUNERAL_HOME",
    "address": "경상남도 창원시 진해구 중원동로 55-1 (중앙동, 진해세광병원)",
    "phone": "055-545-4447",
    "priceRange": {
      "min": 0,
      "max": 0
    },
    "hasParking": true,
    "coordinates": {
      "lat": 35.149656,
      "lng": 128.661093
    },
    "fileUrl": "/BCUser/facilitypic/7000001466/1563522991779.jpg"
  },
  {
    "id": "1000000799",
    "name": "충주의료원장례식장",
    "category": "FUNERAL_HOME",
    "address": "충청북도 충주시 안림로 239-50 (안림동)",
    "phone": "043-871-0444",
    "priceRange": {
      "min": 0,
      "max": 0
    },
    "hasParking": true,
    "coordinates": {
      "lat": 36.97961,
      "lng": 127.970448
    },
    "fileUrl": "/BCUser/facilitypic/1000000799/1554265080366.png"
  },
  {
    "id": "1000000133",
    "name": "금강장례식장",
    "category": "FUNERAL_HOME",
    "address": "충청남도 부여군 부여읍 백제문화로429번길 9 (자왕리)",
    "phone": "041-834-0100",
    "priceRange": {
      "min": 0,
      "max": 0
    },
    "hasParking": true,
    "coordinates": {
      "lat": 36.3119823,
      "lng": 126.9509097
    },
    "fileUrl": "/BCUser/facilitypic/1000000133/1563430507149.jpg"
  },
  {
    "id": "1000000458",
    "name": "BHS한서병원장례식장",
    "category": "FUNERAL_HOME",
    "address": "부산광역시 수영구 수영로 615 (광안동)",
    "phone": "051-751-1860",
    "priceRange": {
      "min": 0,
      "max": 0
    },
    "hasParking": true,
    "coordinates": {
      "lat": 35.1608916,
      "lng": 129.1131305
    },
    "fileUrl": "/BCUser/facilitypic/1000000458/1563432335521.jpg"
  },
  {
    "id": "1000000317",
    "name": "부산보훈병원장례식장",
    "category": "FUNERAL_HOME",
    "address": "부산광역시 사상구 백양대로 420 (주례동, 부산보훈병원)",
    "phone": "051-601-6785",
    "priceRange": {
      "min": 0,
      "max": 0
    },
    "hasParking": true,
    "coordinates": {
      "lat": 35.153325,
      "lng": 129.008242
    },
    "fileUrl": "/BCUser/facilitypic/1000000317/1560220913760.jpg"
  },
  {
    "id": "7000002946",
    "name": "대명휴장례식장",
    "category": "FUNERAL_HOME",
    "address": "대구광역시 남구 대명로 86 지하1층 대명휴장례식장(대명동)",
    "phone": "053-472-0001",
    "priceRange": {
      "min": 0,
      "max": 0
    },
    "hasParking": true,
    "coordinates": {
      "lat": null,
      "lng": null
    },
    "fileUrl": "/BCUser/facilitypic/7000002946/1758780605407.jpg"
  },
  {
    "id": "7000002710",
    "name": "원당장례식장(주)고양베스트",
    "category": "FUNERAL_HOME",
    "address": "경기도 고양시 덕양구 고양대로 1359-5 (성사동)",
    "phone": "031-965-4444",
    "priceRange": {
      "min": 0,
      "max": 0
    },
    "hasParking": true,
    "coordinates": {
      "lat": 37.655291,
      "lng": 126.835554
    },
    "fileUrl": "/BCUser/facilitypic/7000002710/1709688362757.PNG"
  },
  {
    "id": "7000002140",
    "name": "쉴낙원 홍천장례문화원",
    "category": "FUNERAL_HOME",
    "address": "강원도 홍천군 홍천읍 설악로 2374 (와동리)",
    "phone": "033-434-7788",
    "priceRange": {
      "min": 0,
      "max": 0
    },
    "hasParking": true,
    "coordinates": {
      "lat": 37.727841,
      "lng": 127.936486
    },
    "fileUrl": "/BCUser/facilitypic/7000002140/1564473586658.jpg"
  },
  {
    "id": "7000001429",
    "name": "다대수병원장례식장",
    "category": "FUNERAL_HOME",
    "address": "부산광역시 사하구 다대로 565 (다대동)",
    "phone": "051-264-3535",
    "priceRange": {
      "min": 0,
      "max": 0
    },
    "hasParking": true,
    "coordinates": {
      "lat": 35.0558972,
      "lng": 128.9709128
    },
    "fileUrl": "/BCUser/facilitypic/1516251784608_7000001429_0.jpg"
  },
  {
    "id": "7000001294",
    "name": "제일장례식장",
    "category": "FUNERAL_HOME",
    "address": "경기도 평택시 삼봉로 30 (독곡동)",
    "phone": "031-611-1144",
    "priceRange": {
      "min": 0,
      "max": 0
    },
    "hasParking": true,
    "coordinates": {
      "lat": 37.089443,
      "lng": 127.067048
    },
    "fileUrl": "/BCUser/facilitypic/7000001294/1563436470453.jpg"
  },
  {
    "id": "7000000590",
    "name": "창원시립상복공원장례식장",
    "category": "FUNERAL_HOME",
    "address": "경상남도 창원시 성산구 공단로474번길 160 (상복동)",
    "phone": "055-712-0930",
    "priceRange": {
      "min": 0,
      "max": 0
    },
    "hasParking": true,
    "coordinates": {
      "lat": 35.193277,
      "lng": 128.661143
    },
    "fileUrl": "/BCUser/facilitypic/1346738491083_7000000590_0.jpg"
  },
  {
    "id": "7000000267",
    "name": "한성병원장례식장",
    "category": "FUNERAL_HOME",
    "address": "경상남도 창녕군 창녕읍 교리1길 2 (교리)",
    "phone": "055-532-1532",
    "priceRange": {
      "min": 0,
      "max": 0
    },
    "hasParking": true,
    "coordinates": {
      "lat": 35.5421395,
      "lng": 128.4933873
    },
    "fileUrl": "/BCUser/facilitypic/7000000267/1559107383200.png"
  },
  {
    "id": "7000000834",
    "name": "인천성모장례식장",
    "category": "FUNERAL_HOME",
    "address": "인천광역시 부평구 동수로 56 (부평동, 가톨릭대학교인천성모병원)",
    "phone": "032-517-0710",
    "priceRange": {
      "min": 0,
      "max": 0
    },
    "hasParking": true,
    "coordinates": {
      "lat": 37.484193,
      "lng": 126.724912
    },
    "fileUrl": "/BCUser/facilitypic/1612338349177.jpg"
  },
  {
    "id": "7000002888",
    "name": "금강장례식장",
    "category": "FUNERAL_HOME",
    "address": "인천광역시 미추홀구 인주대로 452 (주안동, 금강요양병원,새한장례식장)",
    "phone": "032-432-4444",
    "priceRange": {
      "min": 0,
      "max": 0
    },
    "hasParking": true,
    "coordinates": {
      "lat": null,
      "lng": null
    },
    "fileUrl": "/BCUser/facilitypic/1748589638893.jpg"
  },
  {
    "id": "1000000704",
    "name": "조선대학교병원장례식장",
    "category": "FUNERAL_HOME",
    "address": "광주광역시 동구 필문대로 365 (서석동)",
    "phone": "062-220-3352",
    "priceRange": {
      "min": 0,
      "max": 0
    },
    "hasParking": true,
    "coordinates": {
      "lat": 35.13999,
      "lng": 126.924304
    },
    "fileUrl": "/BCUser/facilitypic/1325136950826_1000000704_0.jpg"
  },
  {
    "id": "1000000400",
    "name": "시티병원장례식장",
    "category": "FUNERAL_HOME",
    "address": "경기도 의왕시 오전천로 29 (오전동)",
    "phone": "031-459-7575",
    "priceRange": {
      "min": 0,
      "max": 0
    },
    "hasParking": true,
    "coordinates": {
      "lat": 37.350239,
      "lng": 126.976768
    },
    "fileUrl": "/BCUser/facilitypic/1561531013613_1000000400_0.jpg"
  },
  {
    "id": "1000000259",
    "name": "메리놀병원장례식장",
    "category": "FUNERAL_HOME",
    "address": "부산광역시 중구 중구로 121 (대청동4가)",
    "phone": "051-465-1024",
    "priceRange": {
      "min": 0,
      "max": 0
    },
    "hasParking": true,
    "coordinates": {
      "lat": 35.1073029,
      "lng": 129.0323992
    },
    "fileUrl": "/BCUser/facilitypic/1395623810039_1000000259_0.JPG"
  },
  {
    "id": "7000002615",
    "name": "중앙대학교광명병원장례식장",
    "category": "FUNERAL_HOME",
    "address": "경기도 광명시 덕안로 110, 중앙대학교 광명병원 B2층 (일직동)",
    "phone": "02-2610-9472",
    "priceRange": {
      "min": 0,
      "max": 0
    },
    "hasParking": true,
    "coordinates": {
      "lat": 37.424202,
      "lng": 126.886023
    },
    "fileUrl": "/BCUser/facilitypic/1652253093543.jpg"
  },
  {
    "id": "1000000517",
    "name": "안중장례문화센타",
    "category": "FUNERAL_HOME",
    "address": "경기도 평택시 안중읍 서동대로 1931-11 (금곡리, 안중백병원)",
    "phone": "031-683-4440",
    "priceRange": {
      "min": 0,
      "max": 0
    },
    "hasParking": true,
    "coordinates": {
      "lat": 37.0030539,
      "lng": 126.9582448
    },
    "fileUrl": "/BCUser/facilitypic/1538371801759_1000000517_0.jpg"
  },
  {
    "id": "1000000378",
    "name": "제천서울병원장례식장",
    "category": "FUNERAL_HOME",
    "address": "충청북도 제천시 숭문로 57 (서부동, 서울병원)",
    "phone": "043-644-4422",
    "priceRange": {
      "min": 0,
      "max": 0
    },
    "hasParking": true,
    "coordinates": {
      "lat": 37.138819,
      "lng": 128.206353
    },
    "fileUrl": "/BCUser/facilitypic/1564450453866_1000000378_0.jpg"
  },
  {
    "id": "1000000074",
    "name": "고령영생병원장례식장",
    "category": "FUNERAL_HOME",
    "address": "경상북도 고령군 대가야읍 중앙로 33 (헌문리, 영생병원)",
    "phone": "054-956-4455",
    "priceRange": {
      "min": 0,
      "max": 0
    },
    "hasParking": true,
    "coordinates": {
      "lat": 35.730172,
      "lng": 128.272201
    },
    "fileUrl": "/BCUser/facilitypic/1000000074/1563948412077.jpg"
  },
  {
    "id": "1000000835",
    "name": "하나장례식장",
    "category": "FUNERAL_HOME",
    "address": "충청북도 청주시 서원구 대림로 431 (죽림동)",
    "phone": "043-270-8400",
    "priceRange": {
      "min": 0,
      "max": 0
    },
    "hasParking": true,
    "coordinates": {
      "lat": 36.610257,
      "lng": 127.440893
    },
    "fileUrl": "/BCUser/facilitypic/1478500533654_1000000835_0.gif"
  },
  {
    "id": "7000000611",
    "name": "늘푸른장례식장",
    "category": "FUNERAL_HOME",
    "address": "경상남도 창원시 진해구 충장로 181 (여좌동)",
    "phone": "055-551-8000",
    "priceRange": {
      "min": 0,
      "max": 0
    },
    "hasParking": true,
    "coordinates": {
      "lat": 35.1528061,
      "lng": 128.6718707
    },
    "fileUrl": "/BCUser/facilitypic/7000000611/1554962234498.jpg"
  },
  {
    "id": "7000001559",
    "name": "김해시민장례식장",
    "category": "FUNERAL_HOME",
    "address": "경상남도 김해시 금관대로910번길 4 (풍유동)",
    "phone": "055-900-4000",
    "priceRange": {
      "min": 0,
      "max": 0
    },
    "hasParking": true,
    "coordinates": {
      "lat": 35.208705,
      "lng": 128.845321
    },
    "fileUrl": "/BCUser/facilitypic/7000001559/1560314295354.jpg"
  },
  {
    "id": "7000002144",
    "name": "엠지(MG)새마을금고 장례식장",
    "category": "FUNERAL_HOME",
    "address": "전라북도 남원시 요천로 1237 (조산동, 장례식장)",
    "phone": "063-636-4141",
    "priceRange": {
      "min": 0,
      "max": 0
    },
    "hasParking": true,
    "coordinates": {
      "lat": 35.396833,
      "lng": 127.358898
    },
    "fileUrl": "/BCUser/facilitypic/1544166428894_7000002144_0.jpg"
  },
  {
    "id": "7000000194",
    "name": "우주장례식장",
    "category": "FUNERAL_HOME",
    "address": "전라남도 고흥군 고흥읍 봉동주공길 56-16 (호형리)",
    "phone": "061-832-4000",
    "priceRange": {
      "min": 0,
      "max": 0
    },
    "hasParking": true,
    "coordinates": {
      "lat": 34.604041,
      "lng": 127.2910076
    },
    "fileUrl": "/BCUser/facilitypic/7000000194/1555305753676.jpg"
  },
  {
    "id": "1000000386",
    "name": "서울특별시 서울의료원 장례식장",
    "category": "FUNERAL_HOME",
    "address": "서울특별시 중랑구 신내로 156후문 (장례식장) ",
    "phone": "02-2276-7671",
    "priceRange": {
      "min": 0,
      "max": 0
    },
    "hasParking": true,
    "coordinates": {
      "lat": 37.613036,
      "lng": 127.0984134
    },
    "fileUrl": "/BCUser/facilitypic/1663293920700.jpg"
  },
  {
    "id": "1000000707",
    "name": "웅상중앙병원장례식장",
    "category": "FUNERAL_HOME",
    "address": "경상남도 양산시 서창로 59 (명동)",
    "phone": "055-912-4440",
    "priceRange": {
      "min": 0,
      "max": 0
    },
    "hasParking": true,
    "coordinates": {
      "lat": 35.4063743,
      "lng": 129.1645487
    },
    "fileUrl": "/BCUser/facilitypic/1000000707/1563435466377.jpg"
  },
  {
    "id": "1000000214",
    "name": "대한병원장례식장",
    "category": "FUNERAL_HOME",
    "address": "서울특별시 강북구 도봉로 301 (수유동)",
    "phone": "02-992-4444",
    "priceRange": {
      "min": 0,
      "max": 0
    },
    "hasParking": true,
    "coordinates": {
      "lat": 37.6353498,
      "lng": 127.0228853
    },
    "fileUrl": "/BCUser/facilitypic/1000000214/1554355819220.png"
  },
  {
    "id": "7000002080",
    "name": "오산한국병원장례식장",
    "category": "FUNERAL_HOME",
    "address": "경기도 오산시 밀머리로1번길 16 (원동, 오산한국병원)",
    "phone": "031-375-7600",
    "priceRange": {
      "min": 0,
      "max": 0
    },
    "hasParking": true,
    "coordinates": {
      "lat": 37.141103,
      "lng": 127.075215
    },
    "fileUrl": "/BCUser/facilitypic/1533860053737_7000002080_0.jpg"
  },
  {
    "id": "7000002047",
    "name": "(주)서원 바른장례식장",
    "category": "FUNERAL_HOME",
    "address": "강원도 원주시 판부면 치악로 1133 (금대리)",
    "phone": "033-735-4444",
    "priceRange": {
      "min": 0,
      "max": 0
    },
    "hasParking": true,
    "coordinates": {
      "lat": 37.293311,
      "lng": 127.991066
    },
    "fileUrl": "/BCUser/facilitypic/1660186270859.png"
  },
  {
    "id": "7000001946",
    "name": "효사랑장례문화원",
    "category": "FUNERAL_HOME",
    "address": "전라북도 전주시 완산구 용머리로 77 (효자동1가, 효사랑가족요양병원)",
    "phone": "063-250-4444",
    "priceRange": {
      "min": 0,
      "max": 0
    },
    "hasParking": true,
    "coordinates": {
      "lat": 35.8067071,
      "lng": 127.1188362
    },
    "fileUrl": "/BCUser/facilitypic/1525315028886_7000001946_0.JPG"
  },
  {
    "id": "7000000458",
    "name": "칠곡경북대학교병원장례식장",
    "category": "FUNERAL_HOME",
    "address": "대구광역시 북구 호국로 807 (학정동)",
    "phone": "053-200-2500",
    "priceRange": {
      "min": 0,
      "max": 0
    },
    "hasParking": true,
    "coordinates": {
      "lat": 35.957103,
      "lng": 128.565303
    },
    "fileUrl": "/BCUser/facilitypic/1734419749258.jpg"
  },
  {
    "id": "7000000962",
    "name": "(주)수요양병원장례식장",
    "category": "FUNERAL_HOME",
    "address": "부산광역시 부산진구 동평로 401,지하1층,지하2층 (양정동)",
    "phone": "051-853-1024",
    "priceRange": {
      "min": 0,
      "max": 0
    },
    "hasParking": true,
    "coordinates": {
      "lat": 35.174419,
      "lng": 129.068751
    },
    "fileUrl": "/BCUser/facilitypic/7000000962/1556524775629.jpg"
  },
  {
    "id": "7000000335",
    "name": "한사랑병원장례문화센타",
    "category": "FUNERAL_HOME",
    "address": "경기도 안산시 상록구 광덕1로 345 (이동)",
    "phone": "031-439-4444",
    "priceRange": {
      "min": 0,
      "max": 0
    },
    "hasParking": true,
    "coordinates": {
      "lat": 37.3070689,
      "lng": 126.8484422
    },
    "fileUrl": "/BCUser/facilitypic/1514964732108_7000000335_0.jpg"
  },
  {
    "id": "1000000165",
    "name": "남원의료원장례식장",
    "category": "FUNERAL_HOME",
    "address": "전북특별자치도 남원시 충정로 365 (고죽동)",
    "phone": "063-620-1140",
    "priceRange": {
      "min": 0,
      "max": 0
    },
    "hasParking": true,
    "coordinates": {
      "lat": 35.4326296,
      "lng": 127.4083857
    },
    "fileUrl": "/BCUser/facilitypic/1715570843271.jpg"
  },
  {
    "id": "1000000210",
    "name": "대전보훈병원장례식장",
    "category": "FUNERAL_HOME",
    "address": "대전광역시 대덕구 대청로82번길 147 (신탄진동)",
    "phone": "042-933-4446",
    "priceRange": {
      "min": 0,
      "max": 0
    },
    "hasParking": true,
    "coordinates": {
      "lat": 36.445962,
      "lng": 127.439844
    },
    "fileUrl": "/BCUser/facilitypic/1629167279170.jpg"
  },
  {
    "id": "1000000816",
    "name": "창원파티마병원장례식장",
    "category": "FUNERAL_HOME",
    "address": "경상남도 창원시 의창구 창이대로 45 (명서동)",
    "phone": "055-270-1900",
    "priceRange": {
      "min": 0,
      "max": 0
    },
    "hasParking": true,
    "coordinates": {
      "lat": 35.237238,
      "lng": 128.645851
    },
    "fileUrl": "/BCUser/facilitypic/1327022117287_1000000816_0.jpg"
  },
  {
    "id": "7000002030",
    "name": "아산유리요양병원 장례식장",
    "category": "FUNERAL_HOME",
    "address": "충청남도 아산시 도고면 도고면로 179,아산유리요양병원 (기곡리)",
    "phone": "041-549-1044",
    "priceRange": {
      "min": 0,
      "max": 0
    },
    "hasParking": true,
    "coordinates": {
      "lat": 36.763299,
      "lng": 126.882738
    },
    "fileUrl": "/BCUser/facilitypic/7000002030/1536989871993.jpg"
  },
  {
    "id": "1000000920",
    "name": "화천군공설장례식장",
    "category": "FUNERAL_HOME",
    "address": "강원특별자치도 화천군 하남면 영서로 5697-66 (원천리, 화천장례식장)",
    "phone": "033-442-0452",
    "priceRange": {
      "min": 0,
      "max": 0
    },
    "hasParking": true,
    "coordinates": {
      "lat": 38.069954,
      "lng": 127.67968
    },
    "fileUrl": "/BCUser/facilitypic/1000000920/1554272543148.jpg"
  },
  {
    "id": "7000002470",
    "name": "함안하늘공원장례식장",
    "category": "FUNERAL_HOME",
    "address": "경상남도 함안군 가야읍 함마대로 1145 (사내리, 함안하늘공원)",
    "phone": "055-585-7180",
    "priceRange": {
      "min": 0,
      "max": 0
    },
    "hasParking": true,
    "coordinates": {
      "lat": 35.27703,
      "lng": 128.367719
    },
    "fileUrl": "/BCUser/facilitypic/1613177247962.jpg"
  },
  {
    "id": "7000002638",
    "name": "아너스힐병원장례식장",
    "category": "FUNERAL_HOME",
    "address": "경기도 김포시 통진읍 흥신로 320-10 (도사리, 제이에스병원)",
    "phone": "031-989-4404",
    "priceRange": {
      "min": 0,
      "max": 0
    },
    "hasParking": true,
    "coordinates": {
      "lat": 37.683794,
      "lng": 126.608486
    },
    "fileUrl": "/BCUser/facilitypic/1684899297535.jpg"
  },
  {
    "id": "7000002624",
    "name": "함안시민장례식장",
    "category": "FUNERAL_HOME",
    "address": "경상남도 함안군 산인면 학산2길 17-50 (송정리)",
    "phone": "055-785-4444",
    "priceRange": {
      "min": 0,
      "max": 0
    },
    "hasParking": true,
    "coordinates": {
      "lat": 35.274364,
      "lng": 128.431744
    },
    "fileUrl": "/BCUser/facilitypic/1651564165267.jpg"
  },
  {
    "id": "7000000237",
    "name": "안산온누리병원장례식장",
    "category": "FUNERAL_HOME",
    "address": "경기도 안산시 단원구 선부로 201 (선부동)",
    "phone": "031-487-4444",
    "priceRange": {
      "min": 0,
      "max": 0
    },
    "hasParking": true,
    "coordinates": {
      "lat": 37.3418275,
      "lng": 126.8174982
    },
    "fileUrl": "/BCUser/facilitypic/7000000237/1559115124840.png"
  },
  {
    "id": "1000000661",
    "name": "일산복음병원장례식장",
    "category": "FUNERAL_HOME",
    "address": "경기도 고양시 일산동구 고양대로 760, 나동 B1층 (중산동, 일산복음병원)",
    "phone": "031-977-6000",
    "priceRange": {
      "min": 0,
      "max": 0
    },
    "hasParking": true,
    "coordinates": {
      "lat": 37.6817198,
      "lng": 126.7799777
    },
    "fileUrl": "/BCUser/facilitypic/1000000661/1555901493699.jpg"
  },
  {
    "id": "1000000254",
    "name": "경상남도 마산의료원 장례식장",
    "category": "FUNERAL_HOME",
    "address": "경상남도 창원시 마산합포구 3.15대로 231 (마산의료원 장례식장) ",
    "phone": "055-249-1700",
    "priceRange": {
      "min": 0,
      "max": 0
    },
    "hasParking": true,
    "coordinates": {
      "lat": 35.198613,
      "lng": 128.566315
    },
    "fileUrl": "/BCUser/facilitypic/1000000254/1554268371919.jpg"
  },
  {
    "id": "7000002206",
    "name": "계명대학교대구동산병원장례식장",
    "category": "FUNERAL_HOME",
    "address": "대구광역시 중구 달성로 56 (동산동, 계명대학교동산의료원)",
    "phone": "053-250-8451",
    "priceRange": {
      "min": 0,
      "max": 0
    },
    "hasParking": true,
    "coordinates": {
      "lat": 35.868371,
      "lng": 128.582957
    },
    "fileUrl": "/BCUser/facilitypic/7000002206/1555306275605.jpg"
  },
  {
    "id": "7000002118",
    "name": "순천향천안장례식장",
    "category": "FUNERAL_HOME",
    "address": "충청남도 천안시 동남구 순천향6길 30 (봉명동, 순천향대학교천안병원)",
    "phone": "041-570-2444",
    "priceRange": {
      "min": 0,
      "max": 0
    },
    "hasParking": true,
    "coordinates": {
      "lat": 36.802394,
      "lng": 127.134495
    },
    "fileUrl": "/BCUser/facilitypic/7000002118/1555985078902.jpg"
  },
  {
    "id": "7000002002",
    "name": "양서농협장례문화원",
    "category": "FUNERAL_HOME",
    "address": "경기도 양평군 양서면 두물머리길 24 (양수리)",
    "phone": "031-771-1900",
    "priceRange": {
      "min": 0,
      "max": 0
    },
    "hasParking": true,
    "coordinates": {
      "lat": 37.5420948,
      "lng": 127.3185492
    },
    "fileUrl": "/BCUser/facilitypic/1571289288730_7000002002_0.png"
  },
  {
    "id": "1000000911",
    "name": "홍익병원장례식장",
    "category": "FUNERAL_HOME",
    "address": "서울특별시 양천구 등촌로 22 (목동)",
    "phone": "02-2600-1444",
    "priceRange": {
      "min": 0,
      "max": 0
    },
    "hasParking": true,
    "coordinates": {
      "lat": 37.5319114,
      "lng": 126.8641205
    },
    "fileUrl": "/BCUser/facilitypic/1000000911/1554358480196.png"
  },
  {
    "id": "7000002584",
    "name": "창녕전문장례식장",
    "category": "FUNERAL_HOME",
    "address": "경상남도 창녕군 창녕읍 창녕대로 120 (탐하리)",
    "phone": "055-532-4445",
    "priceRange": {
      "min": 0,
      "max": 0
    },
    "hasParking": true,
    "coordinates": {
      "lat": 35.534009,
      "lng": 128.497388
    },
    "fileUrl": "/BCUser/facilitypic/1636967520270.jpg"
  },
  {
    "id": "1000000277",
    "name": "백년장례문화원",
    "category": "FUNERAL_HOME",
    "address": "경기도 남양주시 마치로 90 (호평동)",
    "phone": "031-594-4444",
    "priceRange": {
      "min": 0,
      "max": 0
    },
    "hasParking": true,
    "coordinates": {
      "lat": 37.6529532,
      "lng": 127.2618371
    },
    "fileUrl": "/BCUser/facilitypic/1708674707360.jpeg"
  },
  {
    "id": "7000001129",
    "name": "구미장례식장해원",
    "category": "FUNERAL_HOME",
    "address": "경상북도 구미시 야은로 119 (부곡동)",
    "phone": "054-443-5445",
    "priceRange": {
      "min": 0,
      "max": 0
    },
    "hasParking": true,
    "coordinates": {
      "lat": 36.146345,
      "lng": 128.297531
    },
    "fileUrl": "/BCUser/facilitypic/7000001129/1563948957409.jpg"
  },
  {
    "id": "7000000641",
    "name": "정토사 극락원",
    "category": "FUNERAL_HOME",
    "address": "울산광역시 남구 문수로217번길 15 (옥동, 정토사)",
    "phone": "052-212-7000",
    "priceRange": {
      "min": 0,
      "max": 0
    },
    "hasParking": true,
    "coordinates": {
      "lat": 35.5402641,
      "lng": 129.2770917
    },
    "fileUrl": "/BCUser/facilitypic/1483083051035_7000000641_0.JPG"
  },
  {
    "id": "7000000467",
    "name": "메디힐장례식장",
    "category": "FUNERAL_HOME",
    "address": "경기도 포천시 신북면 청신로 2139 (기저리)",
    "phone": "031-534-4401",
    "priceRange": {
      "min": 0,
      "max": 0
    },
    "hasParking": true,
    "coordinates": {
      "lat": 37.934891,
      "lng": 127.226171
    },
    "fileUrl": "/BCUser/facilitypic/7000000467/1563434417268.png"
  },
  {
    "id": "1000000632",
    "name": "원주의료원장례식장",
    "category": "FUNERAL_HOME",
    "address": "강원특별자치도 원주시 서원대로 387 (개운동, 강원도원주의료원)",
    "phone": "033-760-4644",
    "priceRange": {
      "min": 0,
      "max": 0
    },
    "hasParking": true,
    "coordinates": {
      "lat": 37.333351,
      "lng": 127.948801
    },
    "fileUrl": "/BCUser/facilitypic/1000000632/1554256394658.png"
  },
  {
    "id": "7000002634",
    "name": "쉴낙원 갈마성심장례식장",
    "category": "FUNERAL_HOME",
    "address": "대전광역시 서구 갈마로 45,지하1층 (갈마동)",
    "phone": "042-533-4400",
    "priceRange": {
      "min": 0,
      "max": 0
    },
    "hasParking": true,
    "coordinates": {
      "lat": 36.348143,
      "lng": 127.369807
    },
    "fileUrl": "/BCUser/facilitypic/7000002634/1709688446298.PNG"
  },
  {
    "id": "7000002576",
    "name": "화성함백산장례식장",
    "category": "FUNERAL_HOME",
    "address": "경기도 화성시 매송면 서해로 2448-32 (숙곡리)",
    "phone": "031-293-4244",
    "priceRange": {
      "min": 0,
      "max": 0
    },
    "hasParking": true,
    "coordinates": {
      "lat": 37.269013,
      "lng": 126.911102
    },
    "fileUrl": "/BCUser/facilitypic/1641010042626.jpg"
  },
  {
    "id": "1000000638",
    "name": "은하수공원장례식장",
    "category": "FUNERAL_HOME",
    "address": "세종특별자치시 정안세종로 1527,은하수공원 (산울동)",
    "phone": "044-850-1350",
    "priceRange": {
      "min": 0,
      "max": 0
    },
    "hasParking": true,
    "coordinates": {
      "lat": 36.53304,
      "lng": 127.24544
    },
    "fileUrl": "/BCUser/facilitypic/1339461405202_1000000638_0.jpg"
  },
  {
    "id": "1000000221",
    "name": "경기도의료원 이천병원장례식장",
    "category": "FUNERAL_HOME",
    "address": "경기도 이천시 경충대로 2742 (관고동)",
    "phone": "031-630-4444",
    "priceRange": {
      "min": 0,
      "max": 0
    },
    "hasParking": true,
    "coordinates": {
      "lat": 37.283011,
      "lng": 127.432923
    },
    "fileUrl": "/BCUser/facilitypic/1000000221/1554272846941.jpg"
  },
  {
    "id": "1000000544",
    "name": "연세대학교 강남장례식장",
    "category": "FUNERAL_HOME",
    "address": "서울특별시 강남구 언주로 211 (도곡동, 강남세브란스병원)",
    "phone": "02-2019-4000",
    "priceRange": {
      "min": 0,
      "max": 0
    },
    "hasParking": true,
    "coordinates": {
      "lat": 37.492736,
      "lng": 127.0462661
    },
    "fileUrl": "/BCUser/facilitypic/1465864060007_1000000544_0.jpg"
  },
  {
    "id": "7000001036",
    "name": "주식회사 헤븐앤어스",
    "category": "FUNERAL_HOME",
    "address": "경기도 고양시 덕양구 화수로14번길 55,명지병원B1층 (화정동)",
    "phone": "031-810-5444",
    "priceRange": {
      "min": 0,
      "max": 0
    },
    "hasParking": true,
    "coordinates": {
      "lat": 37.642301,
      "lng": 126.830732
    },
    "fileUrl": "/BCUser/facilitypic/1753078250093.jpg"
  },
  {
    "id": "7000000584",
    "name": "광주수완장례식장",
    "category": "FUNERAL_HOME",
    "address": "광주광역시 광산구 수완로 6 (신가동)",
    "phone": "062-959-4444",
    "priceRange": {
      "min": 0,
      "max": 0
    },
    "hasParking": true,
    "coordinates": {
      "lat": 35.185422,
      "lng": 126.829817
    },
    "fileUrl": "/BCUser/facilitypic/7000000584/1554960620791.jpg"
  },
  {
    "id": "1000000473",
    "name": "순천향장례식장",
    "category": "FUNERAL_HOME",
    "address": "경상북도 구미시 1공단로 179 (공단동, 구미순천향병원)",
    "phone": "054-464-4444",
    "priceRange": {
      "min": 0,
      "max": 0
    },
    "hasParking": true,
    "coordinates": {
      "lat": 36.103193,
      "lng": 128.382374
    },
    "fileUrl": "/BCUser/facilitypic/1000000473/1563510435098.jpg"
  },
  {
    "id": "7000001826",
    "name": "혜인요양병원장례식장",
    "category": "FUNERAL_HOME",
    "address": "경상남도 양산시 웅상대로 955지하1층장례식장 (평산동, 토해인병원)",
    "phone": "055-912-4449",
    "priceRange": {
      "min": 0,
      "max": 0
    },
    "hasParking": true,
    "coordinates": {
      "lat": 35.3849138,
      "lng": 129.1550255
    },
    "fileUrl": "/BCUser/facilitypic/7000001826/1560315644964.png"
  },
  {
    "id": "7000002646",
    "name": "성빈센트병원 장례식장",
    "category": "FUNERAL_HOME",
    "address": "경기도 수원시 팔달구 중부대로 93 (지동, 성빈센트병원)",
    "phone": "031-249-8444",
    "priceRange": {
      "min": 0,
      "max": 0
    },
    "hasParking": true,
    "coordinates": {
      "lat": 37.2777401,
      "lng": 127.0276295
    },
    "fileUrl": "/BCUser/facilitypic/1663633003606.jpeg"
  },
  {
    "id": "1000000724",
    "name": "(주)합천장례식장",
    "category": "FUNERAL_HOME",
    "address": "경상남도 합천군 대양면 동부로 64-2 (정양리)",
    "phone": "055-932-7000",
    "priceRange": {
      "min": 0,
      "max": 0
    },
    "hasParking": true,
    "coordinates": {
      "lat": 35.5554344,
      "lng": 128.168817
    },
    "fileUrl": "/BCUser/facilitypic/1000000724/1560321419892.jpg"
  },
  {
    "id": "7000001171",
    "name": "모현장례문화원",
    "category": "FUNERAL_HOME",
    "address": "전라북도 익산시 오산면 무왕로2길 321-20 (장신리)",
    "phone": "063-853-9889",
    "priceRange": {
      "min": 0,
      "max": 0
    },
    "hasParking": true,
    "coordinates": {
      "lat": 35.9497991,
      "lng": 126.9292297
    },
    "fileUrl": "/BCUser/facilitypic/1465892447312_7000001171_0.jpg"
  },
  {
    "id": "7000000418",
    "name": "웰니스1004병원장례식장",
    "category": "FUNERAL_HOME",
    "address": "대구광역시 서구 달구벌대로 1889 (내당동)",
    "phone": "053-522-0444",
    "priceRange": {
      "min": 0,
      "max": 0
    },
    "hasParking": true,
    "coordinates": {
      "lat": 35.8621546,
      "lng": 128.5708751
    },
    "fileUrl": "/BCUser/facilitypic/7000000418/1554958253394.jpg"
  },
  {
    "id": "7000000428",
    "name": "SMG연세병원장례식장",
    "category": "FUNERAL_HOME",
    "address": "경상남도 창원시 마산합포구 3.15대로 76 (월남동2가)",
    "phone": "055-223-1000",
    "priceRange": {
      "min": 0,
      "max": 0
    },
    "hasParking": true,
    "coordinates": {
      "lat": 35.1863296,
      "lng": 128.5616194
    },
    "fileUrl": "/BCUser/facilitypic/1751500088637.jpg"
  },
  {
    "id": "1000000671",
    "name": "장흥우리병원중앙장례식장",
    "category": "FUNERAL_HOME",
    "address": "전라남도 장흥군 장흥읍 남부관광로 6 (건산리)",
    "phone": "061-863-4444",
    "priceRange": {
      "min": 0,
      "max": 0
    },
    "hasParking": true,
    "coordinates": {
      "lat": 34.675606,
      "lng": 126.910706
    },
    "fileUrl": "/BCUser/facilitypic/1568083916328_1000000671_0.jpg"
  },
  {
    "id": "1000000276",
    "name": "배성병원장례식장",
    "category": "FUNERAL_HOME",
    "address": "대구광역시 북구 검단로 140 (검단동)",
    "phone": "053-382-1600",
    "priceRange": {
      "min": 0,
      "max": 0
    },
    "hasParking": true,
    "coordinates": {
      "lat": 35.907791,
      "lng": 128.62258
    },
    "fileUrl": "/BCUser/facilitypic/1000000276/1554960797925.jpg"
  },
  {
    "id": "1000000262",
    "name": "(주)모악장례문화원",
    "category": "FUNERAL_HOME",
    "address": "전라북도 전주시 완산구 우림로 1109 (삼천동2가)",
    "phone": "063-221-4400",
    "priceRange": {
      "min": 0,
      "max": 0
    },
    "hasParking": true,
    "coordinates": {
      "lat": 35.7856901,
      "lng": 127.1081599
    },
    "fileUrl": "/BCUser/facilitypic/1547433279730_1000000262_0.jpg"
  },
  {
    "id": "7000000476",
    "name": "거창장례식장",
    "category": "FUNERAL_HOME",
    "address": "경상남도 거창군 거창읍 장팔길 159-15 (장팔리)",
    "phone": "055-944-4444",
    "priceRange": {
      "min": 0,
      "max": 0
    },
    "hasParking": true,
    "coordinates": {
      "lat": 35.673401,
      "lng": 127.906728
    },
    "fileUrl": "/BCUser/facilitypic/7000000476/1555907557123.jpg"
  },
  {
    "id": "7000002790",
    "name": "구미강동병원장례식장",
    "category": "FUNERAL_HOME",
    "address": "경상북도 구미시 인동20길 46 지하1층 (진평동, 구미강동병원)",
    "phone": "054-473-9650",
    "priceRange": {
      "min": 0,
      "max": 0
    },
    "hasParking": true,
    "coordinates": {
      "lat": 36.096217,
      "lng": 128.422898
    },
    "fileUrl": "/BCUser/facilitypic/7000002790/1715041945561.gif"
  },
  {
    "id": "1000000902",
    "name": "혜성병원장례식장",
    "category": "FUNERAL_HOME",
    "address": "전라북도 부안군 부안읍 부령로 34 (선은리, 혜성병원)",
    "phone": "063-584-4300",
    "priceRange": {
      "min": 0,
      "max": 0
    },
    "hasParking": true,
    "coordinates": {
      "lat": 35.733182,
      "lng": 126.746824
    },
    "fileUrl": "/BCUser/facilitypic/1000000902/1563523154426.jpg"
  },
  {
    "id": "1000000897",
    "name": "현대병원장례식장",
    "category": "FUNERAL_HOME",
    "address": "경상남도 김해시 구산로 23 (구산동)",
    "phone": "055-331-0036",
    "priceRange": {
      "min": 0,
      "max": 0
    },
    "hasParking": true,
    "coordinates": {
      "lat": 35.2490459,
      "lng": 128.8713956
    },
    "fileUrl": "/BCUser/facilitypic/1000000897/1555984160997.jpg"
  },
  {
    "id": "1000000935",
    "name": "효자원장례식장",
    "category": "FUNERAL_HOME",
    "address": "경기도 이천시 백사면 지읍로 169 (조읍리)",
    "phone": "031-631-4411",
    "priceRange": {
      "min": 0,
      "max": 0
    },
    "hasParking": true,
    "coordinates": {
      "lat": 37.3210663,
      "lng": 127.4775047
    },
    "fileUrl": "/BCUser/facilitypic/1329397474501_1000000935_0.JPG"
  },
  {
    "id": "7000001310",
    "name": "청기와장례식장(계양점)",
    "category": "FUNERAL_HOME",
    "address": "인천광역시 계양구 아나지로 559 (서운동)",
    "phone": "032-546-4444",
    "priceRange": {
      "min": 0,
      "max": 0
    },
    "hasParking": true,
    "coordinates": {
      "lat": 37.5264305,
      "lng": 126.755423
    },
    "fileUrl": "/BCUser/facilitypic/7000001310/1555491295824.png"
  },
  {
    "id": "7000000980",
    "name": "남구미요양병원장례식장",
    "category": "FUNERAL_HOME",
    "address": "경상북도 구미시 금오대로 378 (오태동)",
    "phone": "054-716-0044",
    "priceRange": {
      "min": 0,
      "max": 0
    },
    "hasParking": true,
    "coordinates": {
      "lat": 36.077065,
      "lng": 128.352681
    },
    "fileUrl": "/BCUser/facilitypic/7000000980/1560329792778.jpg"
  },
  {
    "id": "1000000728",
    "name": "국화향기",
    "category": "FUNERAL_HOME",
    "address": "경기도 안산시 상록구 구룡로 87 (일동)",
    "phone": "031-501-4646",
    "priceRange": {
      "min": 0,
      "max": 0
    },
    "hasParking": true,
    "coordinates": {
      "lat": 37.317426,
      "lng": 126.873671
    },
    "fileUrl": "/BCUser/facilitypic/1000000728/1554267087154.jpg"
  },
  {
    "id": "1000000066",
    "name": "계명대학교경주동산병원장례식장",
    "category": "FUNERAL_HOME",
    "address": "경상북도 경주시 봉황로 65 (서부동, 계명대학교경주동산병원)",
    "phone": "054-774-0288",
    "priceRange": {
      "min": 0,
      "max": 0
    },
    "hasParking": true,
    "coordinates": {
      "lat": 35.845395,
      "lng": 129.209666
    },
    "fileUrl": "/BCUser/facilitypic/1000000066/1563522914765.jpg"
  },
  {
    "id": "7000001209",
    "name": "백제장례예식장",
    "category": "FUNERAL_HOME",
    "address": "전라북도 익산시 함열읍 익산대로 1493 (석매리)",
    "phone": "063-861-5300",
    "priceRange": {
      "min": 0,
      "max": 0
    },
    "hasParking": true,
    "coordinates": {
      "lat": 36.052189,
      "lng": 126.961166
    },
    "fileUrl": "/BCUser/facilitypic/7000001209/1555487942890.png"
  },
  {
    "id": "7000001975",
    "name": "효사랑요양병원장례식장",
    "category": "FUNERAL_HOME",
    "address": "경상북도 영천시 금호읍 금호로 484 (신월리, 효사랑요양병원)",
    "phone": "054-337-4044",
    "priceRange": {
      "min": 0,
      "max": 0
    },
    "hasParking": true,
    "coordinates": {
      "lat": 35.949646,
      "lng": 128.906364
    },
    "fileUrl": "/BCUser/facilitypic/7000001975/1562898209981.jpg"
  },
  {
    "id": "1000000938",
    "name": "휴앤유병원장례식장",
    "category": "FUNERAL_HOME",
    "address": "경기도 부천시 소사구 심곡로10번길 63 (송내동)",
    "phone": "032-662-1024",
    "priceRange": {
      "min": 0,
      "max": 0
    },
    "hasParking": true,
    "coordinates": {
      "lat": 37.4828969,
      "lng": 126.7725187
    },
    "fileUrl": "/BCUser/facilitypic/1470278259977_1000000938_0.jpg"
  },
  {
    "id": "7000000948",
    "name": "분당추모공원휴",
    "category": "FUNERAL_HOME",
    "address": "경기도 광주시 오포읍 오포로 211-49 (능평리)",
    "phone": "031-762-3000",
    "priceRange": {
      "min": 0,
      "max": 0
    },
    "hasParking": true,
    "coordinates": {
      "lat": null,
      "lng": null
    },
    "fileUrl": "/BCUser/facilitypic/1562735713358_7000000948_0.jpg"
  },
  {
    "id": "700002700",
    "name": "행림병원 장례식장",
    "category": "FUNERAL_HOME",
    "address": "부산광역시 금정구 중앙대로 1905(행림병원장례식장) (구서동, 행림병원)",
    "phone": "051-582-1024",
    "priceRange": {
      "min": 0,
      "max": 0
    },
    "hasParking": true,
    "coordinates": {
      "lat": 35.254443,
      "lng": 129.09119
    },
    "fileUrl": "/BCUser/facilitypic/700002700/1709688543515.PNG"
  },
  {
    "id": "1000000046",
    "name": "건국대학교충주병원장례식장",
    "category": "FUNERAL_HOME",
    "address": "충청북도 충주시 국원대로 82 (교현동)",
    "phone": "043-840-8444",
    "priceRange": {
      "min": 0,
      "max": 0
    },
    "hasParking": true,
    "coordinates": {
      "lat": 36.978955,
      "lng": 127.929285
    },
    "fileUrl": "/BCUser/facilitypic/1000000046/1554969195113.jpg"
  },
  {
    "id": "1000000820",
    "name": "교원예움 평택장례식장 ",
    "category": "FUNERAL_HOME",
    "address": "경기도 평택시 신평로 205, (구)평택장례문화원  (군문동)",
    "phone": "031-652-0404",
    "priceRange": {
      "min": 0,
      "max": 0
    },
    "hasParking": true,
    "coordinates": {
      "lat": 36.9818227,
      "lng": 127.0932031
    },
    "fileUrl": "/BCUser/facilitypic/1687394898211.jpg"
  },
  {
    "id": "7000000461",
    "name": "사랑의병원장례식장",
    "category": "FUNERAL_HOME",
    "address": "경기도 안산시 상록구 예술광장로 69 (성포동)",
    "phone": "031-437-4000",
    "priceRange": {
      "min": 0,
      "max": 0
    },
    "hasParking": true,
    "coordinates": {
      "lat": 37.3269791,
      "lng": 126.8447793
    },
    "fileUrl": "/BCUser/facilitypic/7000000461/1579507532844.jpg"
  },
  {
    "id": "7000001548",
    "name": "목포장례문화원",
    "category": "FUNERAL_HOME",
    "address": "전라남도 목포시 고하대로 1140-41 (대양동)",
    "phone": "061-242-4400",
    "priceRange": {
      "min": 0,
      "max": 0
    },
    "hasParking": true,
    "coordinates": {
      "lat": 34.840065,
      "lng": 126.406184
    },
    "fileUrl": "/BCUser/facilitypic/7000001548/1562914093205.jpg"
  },
  {
    "id": "7000001824",
    "name": "아성병원장례식장",
    "category": "FUNERAL_HOME",
    "address": "경상북도 구미시 선기로 155-23 (선기동)",
    "phone": "054-442-5555",
    "priceRange": {
      "min": 0,
      "max": 0
    },
    "hasParking": true,
    "coordinates": {
      "lat": 36.128627,
      "lng": 128.3069999
    },
    "fileUrl": "/BCUser/facilitypic/7000001824/1560329992806.jpg"
  },
  {
    "id": "7000001224",
    "name": "관산정남진장례식장",
    "category": "FUNERAL_HOME",
    "address": "전라남도 장흥군 관산읍 관산로 133 (남송리)",
    "phone": "061-867-4400",
    "priceRange": {
      "min": 0,
      "max": 0
    },
    "hasParking": true,
    "coordinates": {
      "lat": 34.566523,
      "lng": 126.936085
    },
    "fileUrl": "/BCUser/facilitypic/7000001224/1554880611641.png"
  },
  {
    "id": "7000001153",
    "name": "부안호남장례식장",
    "category": "FUNERAL_HOME",
    "address": "전라북도 부안군 행안면 부안로 2563 (신기리)",
    "phone": "063-581-1004",
    "priceRange": {
      "min": 0,
      "max": 0
    },
    "hasParking": true,
    "coordinates": {
      "lat": 35.7220451,
      "lng": 126.7204988
    },
    "fileUrl": "/BCUser/facilitypic/1476958262032_7000001153_0.jpg"
  },
  {
    "id": "1000000710",
    "name": "(주)비이케이더블유 좋은삼선병원지점",
    "category": "FUNERAL_HOME",
    "address": "부산광역시 사상구 가야대로 326 (주례동, 좋은삼선병원)",
    "phone": "051-310-9292",
    "priceRange": {
      "min": 0,
      "max": 0
    },
    "hasParking": true,
    "coordinates": {
      "lat": 35.1503219,
      "lng": 129.0083192
    },
    "fileUrl": "/BCUser/facilitypic/1000000710/1564463256930.jpg"
  },
  {
    "id": "1000000071",
    "name": "합천고려병원 장례식장",
    "category": "FUNERAL_HOME",
    "address": "경상남도 합천군 대양면 대야로 737-20 (정양리)",
    "phone": "055-931-4464",
    "priceRange": {
      "min": 0,
      "max": 0
    },
    "hasParking": true,
    "coordinates": {
      "lat": 35.553033,
      "lng": 128.161338
    },
    "fileUrl": "/BCUser/facilitypic/1000000071/1563513181655.jpg"
  },
  {
    "id": "1000000640",
    "name": "노원을지대학교병원장례식장",
    "category": "FUNERAL_HOME",
    "address": "서울특별시 노원구 한글비석로 68 (하계동, 을지병원)",
    "phone": "02-970-8444",
    "priceRange": {
      "min": 0,
      "max": 0
    },
    "hasParking": true,
    "coordinates": {
      "lat": 37.6363293,
      "lng": 127.0697068
    },
    "fileUrl": "/BCUser/facilitypic/1479093265477_1000000640_0.jpg"
  },
  {
    "id": "1000000577",
    "name": "예산명지병원장례식장",
    "category": "FUNERAL_HOME",
    "address": "충청남도 예산군 예산읍 신례원로 26 (관작리)",
    "phone": "041-334-0444",
    "priceRange": {
      "min": 0,
      "max": 0
    },
    "hasParking": true,
    "coordinates": {
      "lat": 36.7135463,
      "lng": 126.8344759
    },
    "fileUrl": "/BCUser/facilitypic/1000000577/1555985261316.jpg"
  },
  {
    "id": "1000000148",
    "name": "김천의료원장례식장",
    "category": "FUNERAL_HOME",
    "address": "경상북도 김천시 모암길 24 (모암동)",
    "phone": "054-429-8280",
    "priceRange": {
      "min": 0,
      "max": 0
    },
    "hasParking": true,
    "coordinates": {
      "lat": 36.122645,
      "lng": 128.125956
    },
    "fileUrl": "/BCUser/facilitypic/1000000148/1554254692475.jpg"
  },
  {
    "id": "1000000166",
    "name": "남원장례식장",
    "category": "FUNERAL_HOME",
    "address": "전라북도 남원시 충정로 265-7 (월락동)",
    "phone": "063-635-4444",
    "priceRange": {
      "min": 0,
      "max": 0
    },
    "hasParking": true,
    "coordinates": {
      "lat": 35.4258111,
      "lng": 127.3971776
    },
    "fileUrl": "/BCUser/facilitypic/1000000166/1563511969245.jpg"
  },
  {
    "id": "1000000495",
    "name": "실로암사랑요양병원장례식장",
    "category": "FUNERAL_HOME",
    "address": "전라북도 익산시 선화로 389 (영등동)",
    "phone": "063-858-4444",
    "priceRange": {
      "min": 0,
      "max": 0
    },
    "hasParking": true,
    "coordinates": {
      "lat": 35.946179,
      "lng": 126.972173
    },
    "fileUrl": "/BCUser/facilitypic/1442904791347_1000000495_0.jpg"
  },
  {
    "id": "1000000404",
    "name": "더조은장례식장",
    "category": "FUNERAL_HOME",
    "address": "서울특별시 노원구 화랑로 323 지하1층, 지하3층 (월계동)",
    "phone": "02-941-4444",
    "priceRange": {
      "min": 0,
      "max": 0
    },
    "hasParking": true,
    "coordinates": {
      "lat": 37.6148474,
      "lng": 127.0636303
    },
    "fileUrl": "/BCUser/facilitypic/1000000404/1554361406333.png"
  },
  {
    "id": "7000001239",
    "name": "강진의료원장례식장",
    "category": "FUNERAL_HOME",
    "address": "전라남도 강진군 강진읍 탐진로 5 (서성리, 강진의료원)",
    "phone": "061-430-1004",
    "priceRange": {
      "min": 0,
      "max": 0
    },
    "hasParking": true,
    "coordinates": {
      "lat": 34.6372553,
      "lng": 126.757457
    },
    "fileUrl": "/BCUser/facilitypic/7000001239/1562898370406.jpg"
  },
  {
    "id": "7000001604",
    "name": "시민장례식장",
    "category": "FUNERAL_HOME",
    "address": "경상북도 경주시 화랑로 40 (성건동)",
    "phone": "054-775-4443",
    "priceRange": {
      "min": 0,
      "max": 0
    },
    "hasParking": true,
    "coordinates": {
      "lat": 35.8443683,
      "lng": 129.2051753
    },
    "fileUrl": "/BCUser/facilitypic/7000001604/1560327742123.jpg"
  },
  {
    "id": "7000001254",
    "name": "제주대학교병원장례식장",
    "category": "FUNERAL_HOME",
    "address": "제주특별자치도 제주시 아란13길 15 (아라일동, 제주대학병원)",
    "phone": "064-717-2900",
    "priceRange": {
      "min": 0,
      "max": 0
    },
    "hasParking": true,
    "coordinates": {
      "lat": 33.466798,
      "lng": 126.545379
    },
    "fileUrl": "/BCUser/facilitypic/7000001254/1554269667709.jpg"
  },
  {
    "id": "7000002062",
    "name": "쉴낙원 인천장례식장",
    "category": "FUNERAL_HOME",
    "address": "인천광역시 계양구 아나지로 552 (서운동)",
    "phone": "032-548-1009",
    "priceRange": {
      "min": 0,
      "max": 0
    },
    "hasParking": true,
    "coordinates": {
      "lat": 37.524726,
      "lng": 126.754059
    },
    "fileUrl": "/BCUser/facilitypic/1532059288676_7000002062_0.jpg"
  },
  {
    "id": "1000000444",
    "name": "세화병원장례식장",
    "category": "FUNERAL_HOME",
    "address": "경기도 안산시 상록구 용신로 355 (본오동)",
    "phone": "031-501-4444",
    "priceRange": {
      "min": 0,
      "max": 0
    },
    "hasParking": true,
    "coordinates": {
      "lat": 37.3020073,
      "lng": 126.8615462
    },
    "fileUrl": "/BCUser/facilitypic/1535185113195_1000000444_0.jpg"
  },
  {
    "id": "1000000116",
    "name": "문경국화원장례식장",
    "category": "FUNERAL_HOME",
    "address": "경상북도 문경시 공평로 134 (공평동)",
    "phone": "054-555-6444",
    "priceRange": {
      "min": 0,
      "max": 0
    },
    "hasParking": true,
    "coordinates": {
      "lat": 36.611097,
      "lng": 128.180791
    },
    "fileUrl": "/BCUser/facilitypic/1000000116/1561096883263.png"
  },
  {
    "id": "1000000258",
    "name": "메디힐병원장례식장",
    "category": "FUNERAL_HOME",
    "address": "서울특별시 양천구 남부순환로 331 (신월동)",
    "phone": "02-2601-7500",
    "priceRange": {
      "min": 0,
      "max": 0
    },
    "hasParking": true,
    "coordinates": {
      "lat": 37.5373069,
      "lng": 126.8277244
    },
    "fileUrl": "/BCUser/facilitypic/1000000258/1560314893844.jpg"
  },
  {
    "id": "1000000136",
    "name": "(주)금성장례식장",
    "category": "FUNERAL_HOME",
    "address": "전라북도 전주시 덕진구 가리내로 670 (송천동2가)",
    "phone": "063-276-4444",
    "priceRange": {
      "min": 0,
      "max": 0
    },
    "hasParking": true,
    "coordinates": {
      "lat": 35.8679966,
      "lng": 127.1085674
    },
    "fileUrl": "/BCUser/facilitypic/1613786960520.jpg"
  },
  {
    "id": "1000000899",
    "name": "혜민병원장례식장",
    "category": "FUNERAL_HOME",
    "address": "서울특별시 광진구 자양로 85 (자양동)",
    "phone": "02-444-1552",
    "priceRange": {
      "min": 0,
      "max": 0
    },
    "hasParking": true,
    "coordinates": {
      "lat": 37.53519,
      "lng": 127.0833838
    },
    "fileUrl": "/BCUser/facilitypic/1000000899/1554366488241.png"
  },
  {
    "id": "7000002622",
    "name": "k병원장례식장 예지원",
    "category": "FUNERAL_HOME",
    "address": "대구광역시 북구 칠곡중앙대로 357 (태전동)",
    "phone": "053-322-4444",
    "priceRange": {
      "min": 0,
      "max": 0
    },
    "hasParking": true,
    "coordinates": {
      "lat": 35.927732,
      "lng": 128.546344
    },
    "fileUrl": "/BCUser/facilitypic/1650246155502.JPG"
  },
  {
    "id": "7000001436",
    "name": "자연병원장례식장",
    "category": "FUNERAL_HOME",
    "address": "부산광역시 사하구 장평로 1 (장림동)",
    "phone": "051-262-1023",
    "priceRange": {
      "min": 0,
      "max": 0
    },
    "hasParking": true,
    "coordinates": {
      "lat": 35.0688048,
      "lng": 128.9770399
    },
    "fileUrl": "/BCUser/facilitypic/7000001436/1576463963295.jpg"
  },
  {
    "id": "1000000426",
    "name": "성애장례식장",
    "category": "FUNERAL_HOME",
    "address": "서울특별시 영등포구 여의대방로53길 22 (신길동, 성애병원)",
    "phone": "02-844-4444",
    "priceRange": {
      "min": 0,
      "max": 0
    },
    "hasParking": true,
    "coordinates": {
      "lat": 37.511929,
      "lng": 126.922338
    },
    "fileUrl": "/BCUser/facilitypic/1000000426/1554359803386.png"
  },
  {
    "id": "1000000578",
    "name": "예산종합병원장례식장",
    "category": "FUNERAL_HOME",
    "address": "충청남도 예산군 예산읍 금오대로 94 (산성리)",
    "phone": "041-331-4444",
    "priceRange": {
      "min": 0,
      "max": 0
    },
    "hasParking": true,
    "coordinates": {
      "lat": 36.691069,
      "lng": 126.838104
    },
    "fileUrl": "/BCUser/facilitypic/1661915646241.jpg"
  },
  {
    "id": "1000000303",
    "name": "광주보훈병원장례식장",
    "category": "FUNERAL_HOME",
    "address": "광주광역시 광산구 첨단월봉로 99 (산월동, 광주보훈병원)",
    "phone": "062-973-9164",
    "priceRange": {
      "min": 0,
      "max": 0
    },
    "hasParking": true,
    "coordinates": {
      "lat": 35.208512,
      "lng": 126.850878
    },
    "fileUrl": "/BCUser/facilitypic/1000000303/1562898844925.jpg"
  },
  {
    "id": "1000000178",
    "name": "옥천농협장례식장",
    "category": "FUNERAL_HOME",
    "address": "충청북도 옥천군 옥천읍 옥천로 1720 (대천리)",
    "phone": "043-731-4443",
    "priceRange": {
      "min": 0,
      "max": 0
    },
    "hasParking": true,
    "coordinates": {
      "lat": 36.2901839,
      "lng": 127.5684661
    },
    "fileUrl": "/BCUser/facilitypic/1000000178/1555315227328.jpg"
  },
  {
    "id": "1000000807",
    "name": "태안군보건의료원 상례원",
    "category": "FUNERAL_HOME",
    "address": "충청남도 태안군 태안읍 서해로 1952-16 (평천리, 태안군보건의료원)",
    "phone": "041-671-5303",
    "priceRange": {
      "min": 0,
      "max": 0
    },
    "hasParking": true,
    "coordinates": {
      "lat": 36.752344,
      "lng": 126.322589
    },
    "fileUrl": "/BCUser/facilitypic/1000000807/1554264560386.jpg"
  },
  {
    "id": "1000000119",
    "name": "군산장례식장",
    "category": "FUNERAL_HOME",
    "address": "전라북도 군산시 공단대로 700 (소룡동)",
    "phone": "063-468-4119",
    "priceRange": {
      "min": 0,
      "max": 0
    },
    "hasParking": true,
    "coordinates": {
      "lat": 35.9786508,
      "lng": 126.6734223
    },
    "fileUrl": "/BCUser/facilitypic/1000000119/1556066670047.jpg"
  },
  {
    "id": "1000000376",
    "name": "서울대학교병원장례식장",
    "category": "FUNERAL_HOME",
    "address": "서울특별시 종로구 대학로 101,서울대학교병원 (연건동)",
    "phone": "02-2072-2020",
    "priceRange": {
      "min": 0,
      "max": 0
    },
    "hasParking": true,
    "coordinates": {
      "lat": 37.5792598,
      "lng": 126.9983979
    },
    "fileUrl": "/BCUser/facilitypic/1000000376/1554359668848.png"
  },
  {
    "id": "7000000830",
    "name": "서해안장례식장",
    "category": "FUNERAL_HOME",
    "address": "전라남도 목포시 고하대로 797 (연산동)",
    "phone": "061-246-4444",
    "priceRange": {
      "min": 0,
      "max": 0
    },
    "hasParking": true,
    "coordinates": {
      "lat": 34.8162782,
      "lng": 126.3815126
    },
    "fileUrl": "/BCUser/facilitypic/7000000830/1563425200939.jpg"
  },
  {
    "id": "7000001112",
    "name": "추모원장례식장",
    "category": "FUNERAL_HOME",
    "address": "경상남도 사천시 서포면 서포로 786 (외구리)",
    "phone": "055-855-4433",
    "priceRange": {
      "min": 0,
      "max": 0
    },
    "hasParking": true,
    "coordinates": {
      "lat": 35.0490321,
      "lng": 127.9648301
    },
    "fileUrl": "/BCUser/facilitypic/7000001112/1560315202831.png"
  },
  {
    "id": "7000000621",
    "name": "서부산시민장례식장",
    "category": "FUNERAL_HOME",
    "address": "부산광역시 사하구 장림번영로 59 (장림동)",
    "phone": "051-264-0444",
    "priceRange": {
      "min": 0,
      "max": 0
    },
    "hasParking": true,
    "coordinates": {
      "lat": 35.0808644,
      "lng": 128.9720298
    },
    "fileUrl": "/BCUser/facilitypic/1505439841754_7000000621_0.jpg"
  },
  {
    "id": "1000000687",
    "name": "제일병원장례식장",
    "category": "FUNERAL_HOME",
    "address": "울산광역시 남구 남산로354번길 26 (신정동, 제일병원)",
    "phone": "052-265-1005",
    "priceRange": {
      "min": 0,
      "max": 0
    },
    "hasParking": true,
    "coordinates": {
      "lat": 35.5482242,
      "lng": 129.306891
    },
    "fileUrl": "/BCUser/facilitypic/1000000687/1555913296376.jpg"
  },
  {
    "id": "1000000323",
    "name": "부안효병원장례식장",
    "category": "FUNERAL_HOME",
    "address": "전라북도 부안군 행안면 염소로 25 (역리)",
    "phone": "063-582-3939",
    "priceRange": {
      "min": 0,
      "max": 0
    },
    "hasParking": true,
    "coordinates": {
      "lat": 35.730482,
      "lng": 126.721313
    },
    "fileUrl": "/BCUser/facilitypic/1000000323/1563514547093.jpg"
  },
  {
    "id": "1000000676",
    "name": "전남대학교병원장례식장",
    "category": "FUNERAL_HOME",
    "address": "광주광역시 동구 제봉로 42 (학동, 전남대학교병원)",
    "phone": "062-220-5049",
    "priceRange": {
      "min": 0,
      "max": 0
    },
    "hasParking": true,
    "coordinates": {
      "lat": 35.141262,
      "lng": 126.922036
    },
    "fileUrl": "/BCUser/facilitypic/1000000676/1559106963585.jpg"
  },
  {
    "id": "1000000467",
    "name": "순천의료원장례식장",
    "category": "FUNERAL_HOME",
    "address": "전라남도 순천시 서문성터길 2 (매곡동, 순천의료원)",
    "phone": "061-759-9090",
    "priceRange": {
      "min": 0,
      "max": 0
    },
    "hasParking": true,
    "coordinates": {
      "lat": 34.9581335,
      "lng": 127.4834761
    },
    "fileUrl": "/BCUser/facilitypic/1000000467/1554273057776.jpg"
  },
  {
    "id": "1000000610",
    "name": "우리병원장례식장",
    "category": "FUNERAL_HOME",
    "address": "경기도 포천시 소흘읍 호국로 661 (송우리)",
    "phone": "031-542-0444",
    "priceRange": {
      "min": 0,
      "max": 0
    },
    "hasParking": true,
    "coordinates": {
      "lat": 37.827485,
      "lng": 127.148151
    },
    "fileUrl": "/BCUser/facilitypic/1000000610/1563436558112.jpg"
  },
  {
    "id": "1000000161",
    "name": "쉴낙원 남대전장례식장",
    "category": "FUNERAL_HOME",
    "address": "대전광역시 동구 산서로1660번길 142 (대별동)",
    "phone": "042-285-4004",
    "priceRange": {
      "min": 0,
      "max": 0
    },
    "hasParking": true,
    "coordinates": {
      "lat": 36.2832653,
      "lng": 127.462067
    },
    "fileUrl": "/BCUser/facilitypic/1576826308241_1000000161_0.jpg"
  },
  {
    "id": "1000000701",
    "name": "명지병원장례식장",
    "category": "FUNERAL_HOME",
    "address": "충청북도 제천시 내토로 993, 제천명지병원장례식장 (고암동)",
    "phone": "043-651-4440",
    "priceRange": {
      "min": 0,
      "max": 0
    },
    "hasParking": true,
    "coordinates": {
      "lat": 37.1639031,
      "lng": 128.2337501
    },
    "fileUrl": "/BCUser/facilitypic/1000000701/1555314753522.jpg"
  },
  {
    "id": "7000001253",
    "name": "인천삼성장례문화원",
    "category": "FUNERAL_HOME",
    "address": "인천광역시 중구 우현로62번길 34-1 (경동)",
    "phone": "032-777-4445",
    "priceRange": {
      "min": 0,
      "max": 0
    },
    "hasParking": true,
    "coordinates": {
      "lat": 37.4723293,
      "lng": 126.6311891
    },
    "fileUrl": "/BCUser/facilitypic/1521004972205_7000001253_0.jpg"
  },
  {
    "id": "1000000570",
    "name": "강원특별자치도 영월의료원장례식장",
    "category": "FUNERAL_HOME",
    "address": "강원특별자치도 영월군 영월읍 중앙1로 59 (영흥리, 영월의료원)",
    "phone": "033-370-9142",
    "priceRange": {
      "min": 0,
      "max": 0
    },
    "hasParking": true,
    "coordinates": {
      "lat": 37.185901,
      "lng": 128.465111
    },
    "fileUrl": "/BCUser/facilitypic/1000000570/1554259277205.jpg"
  },
  {
    "id": "1000000350",
    "name": "삼척의료원장례식장",
    "category": "FUNERAL_HOME",
    "address": "강원도 삼척시 오십천로 418 (남양동)",
    "phone": "033-572-1141",
    "priceRange": {
      "min": 0,
      "max": 0
    },
    "hasParking": true,
    "coordinates": {
      "lat": 37.439991,
      "lng": 129.1636501
    },
    "fileUrl": "/BCUser/facilitypic/1000000350/1554269998641.jpg"
  },
  {
    "id": "7000002183",
    "name": "(유)태영장례 익산병원장례식장",
    "category": "FUNERAL_HOME",
    "address": "전라북도 익산시 무왕로 969익산병원장례식장 (신동, 익산병원)",
    "phone": "063-851-9444",
    "priceRange": {
      "min": 0,
      "max": 0
    },
    "hasParking": true,
    "coordinates": {
      "lat": 35.96243,
      "lng": 126.967429
    },
    "fileUrl": "/BCUser/facilitypic/7000002183/1554185424935.jpg"
  },
  {
    "id": "7000002962",
    "name": "덕유산자연사랑장례식장",
    "category": "FUNERAL_HOME",
    "address": "경상남도 거창군 거창읍 거안로 1266-77 (송정리)",
    "phone": "055-808-7444",
    "priceRange": {
      "min": 0,
      "max": 0
    },
    "hasParking": true,
    "coordinates": {
      "lat": null,
      "lng": null
    },
    "fileUrl": "/BCUser/facilitypic/7000002962/1764054123371.jpg"
  },
  {
    "id": "7000002662",
    "name": "로고스요양병원 장례식장",
    "category": "FUNERAL_HOME",
    "address": "충청남도 천안시 동남구 청수로 123-10 (구성동)",
    "phone": "041-414-4445",
    "priceRange": {
      "min": 0,
      "max": 0
    },
    "hasParking": true,
    "coordinates": {
      "lat": 36.794553,
      "lng": 127.157724
    },
    "fileUrl": "/BCUser/facilitypic/7000002662/1709686333778.PNG"
  },
  {
    "id": "7000002746",
    "name": "청담장례문화원",
    "category": "FUNERAL_HOME",
    "address": "충청남도 예산군 예산읍 차동로 1451 (대회리)",
    "phone": "041-331-7000",
    "priceRange": {
      "min": 0,
      "max": 0
    },
    "hasParking": true,
    "coordinates": {
      "lat": 36.673209,
      "lng": 126.862634
    },
    "fileUrl": "/BCUser/facilitypic/7000002746/1709626499470.PNG"
  },
  {
    "id": "7000002049",
    "name": "담양제일장례식장",
    "category": "FUNERAL_HOME",
    "address": "전라남도 담양군 담양읍 추성로 1198 (양각리)",
    "phone": "061-382-1111",
    "priceRange": {
      "min": 0,
      "max": 0
    },
    "hasParking": true,
    "coordinates": {
      "lat": 35.317664,
      "lng": 126.968919
    },
    "fileUrl": "/BCUser/facilitypic/1658567925436.jpg"
  },
  {
    "id": "7000002701",
    "name": "백병원대명아임레디장례식장",
    "category": "FUNERAL_HOME",
    "address": "경상남도 거제시 계룡로5길 14 (상동동, 거붕백병원)",
    "phone": "055-636-3112",
    "priceRange": {
      "min": 0,
      "max": 0
    },
    "hasParking": true,
    "coordinates": {
      "lat": 34.873071,
      "lng": 128.627337
    },
    "fileUrl": "/BCUser/facilitypic/1690956256108.JPG"
  },
  {
    "id": "7000002306",
    "name": "영덕제일요양병원장례식장",
    "category": "FUNERAL_HOME",
    "address": "경상북도 영덕군 영덕읍 우곡길 52 (우곡리)",
    "phone": "054-733-4440",
    "priceRange": {
      "min": 0,
      "max": 0
    },
    "hasParking": true,
    "coordinates": {
      "lat": 36.408536,
      "lng": 129.372948
    },
    "fileUrl": "/BCUser/facilitypic/7000002306/1579508428790.jpg"
  },
  {
    "id": "1000000787",
    "name": "청주시장례식장",
    "category": "FUNERAL_HOME",
    "address": "충청북도 청주시 상당구 목련로 731 (월오동)",
    "phone": "043-291-4444",
    "priceRange": {
      "min": 0,
      "max": 0
    },
    "hasParking": true,
    "coordinates": {
      "lat": 36.642892,
      "lng": 127.545378
    },
    "fileUrl": "/BCUser/facilitypic/1000000787/1554271828498.jpg"
  },
  {
    "id": "7000000475",
    "name": "삼천포서울병원장례식장",
    "category": "FUNERAL_HOME",
    "address": "경상남도 사천시 남일로 33 (동금동)",
    "phone": "055-835-9944",
    "priceRange": {
      "min": 0,
      "max": 0
    },
    "hasParking": true,
    "coordinates": {
      "lat": 34.933036,
      "lng": 128.080183
    },
    "fileUrl": "/BCUser/facilitypic/7000000475/1563436659834.jpg"
  },
  {
    "id": "7000001111",
    "name": "우리장례식장",
    "category": "FUNERAL_HOME",
    "address": "경상남도 사천시 송포공단길 53 (송포동, 우리장례식장)",
    "phone": "055-834-1024",
    "priceRange": {
      "min": 0,
      "max": 0
    },
    "hasParking": true,
    "coordinates": {
      "lat": 34.973613,
      "lng": 128.053913
    },
    "fileUrl": "/BCUser/facilitypic/7000001111/1563949875541.jpg"
  },
  {
    "id": "1000000580",
    "name": "(유)예수병원장례식장",
    "category": "FUNERAL_HOME",
    "address": "전라북도 전주시 완산구 서원로 365 (중화산동1가, 예수병원)",
    "phone": "063-285-1009",
    "priceRange": {
      "min": 0,
      "max": 0
    },
    "hasParking": true,
    "coordinates": {
      "lat": 35.814485,
      "lng": 127.132549
    },
    "fileUrl": "/BCUser/facilitypic/1000000580/1474949266915.jpg"
  },
  {
    "id": "1000000918",
    "name": "화순전남대학교병원장례식장",
    "category": "FUNERAL_HOME",
    "address": "전라남도 화순군 화순읍 서양로 322 (일심리, 화순전남대학교병원)",
    "phone": "061-379-7444",
    "priceRange": {
      "min": 0,
      "max": 0
    },
    "hasParking": true,
    "coordinates": {
      "lat": 35.060927,
      "lng": 127.001166
    },
    "fileUrl": "/BCUser/facilitypic/1470611028788_1000000918_0.jpg"
  },
  {
    "id": "7000001850",
    "name": "(주)세종병원장례식장",
    "category": "FUNERAL_HOME",
    "address": "인천광역시 계양구 계양문화로 20 (작전동, 인천세종병원)",
    "phone": "032-240-8444",
    "priceRange": {
      "min": 0,
      "max": 0
    },
    "hasParking": true,
    "coordinates": {
      "lat": 37.531882,
      "lng": 126.736677
    },
    "fileUrl": "/BCUser/facilitypic/1491449061307_7000001850_0.jpg"
  },
  {
    "id": "1000000825",
    "name": "포천장례문화원(주)",
    "category": "FUNERAL_HOME",
    "address": "경기도 포천시 호국로 908-13 (설운동)",
    "phone": "031-541-4144",
    "priceRange": {
      "min": 0,
      "max": 0
    },
    "hasParking": true,
    "coordinates": {
      "lat": 37.8471553,
      "lng": 127.1624972
    },
    "fileUrl": "/BCUser/facilitypic/1744934607845.jpg"
  },
  {
    "id": "1000000114",
    "name": "국민요양병원장례식장",
    "category": "FUNERAL_HOME",
    "address": "울산광역시 남구 번영로 15 (야음동)",
    "phone": "052-269-0119",
    "priceRange": {
      "min": 0,
      "max": 0
    },
    "hasParking": true,
    "coordinates": {
      "lat": 35.527239,
      "lng": 129.330109
    },
    "fileUrl": "/BCUser/facilitypic/1000000114/1560318045053.jpg"
  },
  {
    "id": "1000000283",
    "name": "벌교삼성병원장례식장",
    "category": "FUNERAL_HOME",
    "address": "전라남도 보성군 벌교읍 남하로 12 (장좌리)",
    "phone": "061-858-4452",
    "priceRange": {
      "min": 0,
      "max": 0
    },
    "hasParking": true,
    "coordinates": {
      "lat": 34.83369,
      "lng": 127.3459825
    },
    "fileUrl": "/BCUser/facilitypic/1000000283/1563509621583.jpg"
  },
  {
    "id": "7000001107",
    "name": "양천효병원장례식장",
    "category": "FUNERAL_HOME",
    "address": "서울특별시 양천구 오목로 121 (신정동)",
    "phone": "02-2692-4443",
    "priceRange": {
      "min": 0,
      "max": 0
    },
    "hasParking": false,
    "coordinates": {
      "lat": 37.5242639,
      "lng": 126.8511281
    },
    "fileUrl": "/BCUser/facilitypic/7000001107/1554359941833.png"
  },
  {
    "id": "7000000789",
    "name": "(주)비이케이더블유 좋은장례식장",
    "category": "FUNERAL_HOME",
    "address": "부산광역시 북구 금곡대로 586 (금곡동, 좋은리버뷰요양병원)",
    "phone": "051-911-4444",
    "priceRange": {
      "min": 0,
      "max": 0
    },
    "hasParking": true,
    "coordinates": {
      "lat": 35.2595887,
      "lng": 129.0138139
    },
    "fileUrl": "/BCUser/facilitypic/1369133350029_7000000789_0.jpg"
  },
  {
    "id": "7000001943",
    "name": "쉴낙원 서울장례식장",
    "category": "FUNERAL_HOME",
    "address": "서울특별시 금천구 서부샛길 732 (가산동, 서울장례식장)",
    "phone": "02-2683-4444",
    "priceRange": {
      "min": 0,
      "max": 0
    },
    "hasParking": true,
    "coordinates": {
      "lat": 37.484646,
      "lng": 126.874568
    },
    "fileUrl": "/BCUser/facilitypic/1532064317376_7000001943_0.jpg"
  },
  {
    "id": "7000001969",
    "name": "함양제일장례식장",
    "category": "FUNERAL_HOME",
    "address": "경상남도 함양군 함양읍 고운로 476-19 (백천리)",
    "phone": "055-962-4002",
    "priceRange": {
      "min": 0,
      "max": 0
    },
    "hasParking": true,
    "coordinates": {
      "lat": 35.5257613,
      "lng": 127.7714411
    },
    "fileUrl": "/BCUser/facilitypic/7000001969/1563511551212.jpg"
  },
  {
    "id": "7000002804",
    "name": "빌리브 세웅병원 쉴낙원 장례식장",
    "category": "FUNERAL_HOME",
    "address": "부산광역시 동래구 충렬대로 455 (안락동)",
    "phone": "051-521-3740",
    "priceRange": {
      "min": 0,
      "max": 0
    },
    "hasParking": true,
    "coordinates": {
      "lat": 35.196077,
      "lng": 129.108346
    },
    "fileUrl": "/BCUser/facilitypic/7000002804/1722836205948.jfif"
  },
  {
    "id": "7000002535",
    "name": "의정부을지대학교병원 ",
    "category": "FUNERAL_HOME",
    "address": "경기도 의정부시 동일로 712,평온관 (금오동, 을지대학교의정부캠퍼스및부속병원)",
    "phone": "031-951-7444",
    "priceRange": {
      "min": 0,
      "max": 0
    },
    "hasParking": true,
    "coordinates": {
      "lat": 37.751424,
      "lng": 127.050864
    },
    "fileUrl": "/BCUser/facilitypic/1616388563165.jpg"
  },
  {
    "id": "7000001444",
    "name": "성심장례식장",
    "category": "FUNERAL_HOME",
    "address": "부산광역시 해운대구 좌동순환로 462 (중동, 성심병원)",
    "phone": "051-747-5600",
    "priceRange": {
      "min": 0,
      "max": 0
    },
    "hasParking": true,
    "coordinates": {
      "lat": 35.162208,
      "lng": 129.171971
    },
    "fileUrl": "/BCUser/facilitypic/1480491590962_7000001444_0.jpg"
  },
  {
    "id": "7000001899",
    "name": "서울현대요양병원장례식장",
    "category": "FUNERAL_HOME",
    "address": "서울특별시 강동구 올림픽로 684 (천호동, 친구병원)",
    "phone": "02-486-4444",
    "priceRange": {
      "min": 0,
      "max": 0
    },
    "hasParking": true,
    "coordinates": {
      "lat": 37.5422911,
      "lng": 127.1253107
    },
    "fileUrl": "/BCUser/facilitypic/7000001899/1554360675338.png"
  },
  {
    "id": "7000001676",
    "name": "제천세종장례식장",
    "category": "FUNERAL_HOME",
    "address": "충청북도 제천시 송학주천로 46 (고암동)",
    "phone": "043-642-4441",
    "priceRange": {
      "min": 0,
      "max": 0
    },
    "hasParking": true,
    "coordinates": {
      "lat": 37.169409,
      "lng": 128.236403
    },
    "fileUrl": "/BCUser/facilitypic/1489649076986_7000001676_0.jpg"
  },
  {
    "id": "2000000075",
    "name": "(재)낙원추모공원",
    "category": "FUNERAL_HOME",
    "address": "경상남도 김해시 한림면 김해대로1402번길 148 (신천리)",
    "phone": "055-343-0656",
    "priceRange": {
      "min": 0,
      "max": 0
    },
    "hasParking": true,
    "coordinates": {
      "lat": 35.2648435,
      "lng": 128.8322421
    },
    "fileUrl": "/BCUser/facilitypic/1626668281913.jpg"
  },
  {
    "id": "1000000507",
    "name": "안강중앙병원장례식장",
    "category": "FUNERAL_HOME",
    "address": "경상북도 경주시 안강읍 안강중앙로 150-3 (산대리)",
    "phone": "054-761-3014",
    "priceRange": {
      "min": 0,
      "max": 0
    },
    "hasParking": true,
    "coordinates": {
      "lat": 35.9928076,
      "lng": 129.216816
    },
    "fileUrl": "/BCUser/facilitypic/1000000507/1563514491646.jpg"
  },
  {
    "id": "1000000585",
    "name": "예천장례식장",
    "category": "FUNERAL_HOME",
    "address": "경상북도 예천군 예천읍 충효로 35-8 (지내리)",
    "phone": "054-655-4442",
    "priceRange": {
      "min": 0,
      "max": 0
    },
    "hasParking": true,
    "coordinates": {
      "lat": 36.643444,
      "lng": 128.429822
    },
    "fileUrl": "/BCUser/facilitypic/1000000585/1559106028066.jpg"
  },
  {
    "id": "1000000759",
    "name": "연세에스병원장례식장",
    "category": "FUNERAL_HOME",
    "address": "경상남도 창원시 진해구 해원로32번길 13 (이동)",
    "phone": "055-548-7759",
    "priceRange": {
      "min": 0,
      "max": 0
    },
    "hasParking": true,
    "coordinates": {
      "lat": 35.154895,
      "lng": 128.698245
    },
    "fileUrl": "/BCUser/facilitypic/1000000759/1563437404330.png"
  },
  {
    "id": "1000000314",
    "name": "부산광역시의료원장례식장",
    "category": "FUNERAL_HOME",
    "address": "부산광역시 연제구 월드컵대로 359 (거제동, 부산의료원)",
    "phone": "051-607-2990",
    "priceRange": {
      "min": 0,
      "max": 0
    },
    "hasParking": true,
    "coordinates": {
      "lat": 35.1873066,
      "lng": 129.0595584
    },
    "fileUrl": "/BCUser/facilitypic/1000000314/1560386507542.jpg"
  },
  {
    "id": "7000000160",
    "name": "대성장례식장",
    "category": "FUNERAL_HOME",
    "address": "전라남도 무안군 삼향읍 국사로 5-9 (맥포리)",
    "phone": "061-247-4444",
    "priceRange": {
      "min": 0,
      "max": 0
    },
    "hasParking": true,
    "coordinates": {
      "lat": 34.847896,
      "lng": 126.477701
    },
    "fileUrl": "/BCUser/facilitypic/7000000160/1564467649114.jpg"
  },
  {
    "id": "7000002117",
    "name": "단양군립노인요양병원장례식장",
    "category": "FUNERAL_HOME",
    "address": "충청북도 단양군 단양읍 별곡6길 10 (별곡리, 단양군노인요양전문병원)",
    "phone": "043-423-0044",
    "priceRange": {
      "min": 0,
      "max": 0
    },
    "hasParking": true,
    "coordinates": {
      "lat": 36.987275,
      "lng": 128.368712
    },
    "fileUrl": "/BCUser/facilitypic/7000002117/1554266759498.jpg"
  },
  {
    "id": "7000002042",
    "name": "서울특별시 동부병원 장례식장",
    "category": "FUNERAL_HOME",
    "address": "서울특별시 동대문구 무학로 124 (용두동, 시립동부병원)",
    "phone": "02-920-9445",
    "priceRange": {
      "min": 0,
      "max": 0
    },
    "hasParking": true,
    "coordinates": {
      "lat": 37.575342,
      "lng": 127.031536
    },
    "fileUrl": "/BCUser/facilitypic/7000002042/1554259499829.jpg"
  },
  {
    "id": "1000000399",
    "name": "유성선병원장례식장",
    "category": "FUNERAL_HOME",
    "address": "대전광역시 유성구 북유성대로 93,B1층 (지족동)",
    "phone": "042-825-9494",
    "priceRange": {
      "min": 0,
      "max": 0
    },
    "hasParking": true,
    "coordinates": {
      "lat": 36.37518,
      "lng": 127.3248025
    },
    "fileUrl": "/BCUser/facilitypic/1465631102852_1000000399_0.jpg"
  },
  {
    "id": "1000000174",
    "name": "(복)대구가톨릭사회복지회논공 장례식장",
    "category": "FUNERAL_HOME",
    "address": "대구광역시 달성군 논공읍 논공로 210, 성요셉요양병원장례식장 (남리)",
    "phone": "053-617-3644",
    "priceRange": {
      "min": 0,
      "max": 0
    },
    "hasParking": true,
    "coordinates": {
      "lat": 35.721012,
      "lng": 128.4537507
    },
    "fileUrl": "/BCUser/facilitypic/1000000174/1562913963105.jpg"
  },
  {
    "id": "1000000450",
    "name": "강원특별자치도 속초의료원 장례식장",
    "category": "FUNERAL_HOME",
    "address": "강원특별자치도 속초시 영랑호반길 3 (영랑동, 속초의료원)",
    "phone": "033-630-6016",
    "priceRange": {
      "min": 0,
      "max": 0
    },
    "hasParking": true,
    "coordinates": {
      "lat": 38.216056,
      "lng": 128.587951
    },
    "fileUrl": "/BCUser/facilitypic/1465956756712_1000000450_0.jpg"
  },
  {
    "id": "1000000306",
    "name": "봉담장례문화원",
    "category": "FUNERAL_HOME",
    "address": "경기도 화성시 봉담읍 서봉산길 40 (유리)",
    "phone": "031-278-0404",
    "priceRange": {
      "min": 0,
      "max": 0
    },
    "hasParking": true,
    "coordinates": {
      "lat": 37.175963,
      "lng": 126.936859
    },
    "fileUrl": "/BCUser/facilitypic/1512437172048_1000000306_0.jpg"
  },
  {
    "id": "7000002271",
    "name": "상주시민장례식장",
    "category": "FUNERAL_HOME",
    "address": "경상북도 상주시 경상대로 2693 (가장동)",
    "phone": "054-536-8800",
    "priceRange": {
      "min": 0,
      "max": 0
    },
    "hasParking": true,
    "coordinates": {
      "lat": 36.388242,
      "lng": 128.149897
    },
    "fileUrl": "/BCUser/facilitypic/1573872188910_7000002271_0.jpg"
  },
  {
    "id": "3000000242",
    "name": "해인사 고불암무량수전",
    "category": "FUNERAL_HOME",
    "address": "경상남도 거창군 가북면 용암리 2184",
    "phone": "055-934-0127",
    "priceRange": {
      "min": 0,
      "max": 0
    },
    "hasParking": false,
    "coordinates": {
      "lat": null,
      "lng": null
    },
    "fileUrl": "/BCUser/facilitypic/3000000242/1708479964030.PNG"
  },
  {
    "id": "1000000873",
    "name": "한일병원장례식장",
    "category": "FUNERAL_HOME",
    "address": "서울특별시 도봉구 우이천로 308한일병원장례식장 (쌍문동)",
    "phone": "02-901-3440",
    "priceRange": {
      "min": 0,
      "max": 0
    },
    "hasParking": true,
    "coordinates": {
      "lat": 37.6458568,
      "lng": 127.0285789
    },
    "fileUrl": "/BCUser/facilitypic/1000000873/1554360504960.gif"
  },
  {
    "id": "1000000714",
    "name": "수원시연화장장례식장",
    "category": "FUNERAL_HOME",
    "address": "경기도 수원시 영통구 광교호수로 278 (하동)",
    "phone": "031-218-6500",
    "priceRange": {
      "min": 0,
      "max": 0
    },
    "hasParking": true,
    "coordinates": {
      "lat": 37.2904424,
      "lng": 127.0837369
    },
    "fileUrl": "/BCUser/facilitypic/1464161330053_1000000714_0.jpg"
  },
  {
    "id": "1000000744",
    "name": "임실 중앙장례식장",
    "category": "FUNERAL_HOME",
    "address": "전라북도 임실군 임실읍 호국로 1767 (이도리)",
    "phone": "063-644-6666",
    "priceRange": {
      "min": 0,
      "max": 0
    },
    "hasParking": true,
    "coordinates": {
      "lat": 35.61891,
      "lng": 127.292205
    },
    "fileUrl": "/BCUser/facilitypic/1729385516361.jpg"
  },
  {
    "id": "1000000805",
    "name": "태릉성심장례식장",
    "category": "FUNERAL_HOME",
    "address": "서울특별시 노원구 화랑로 425-8 (공릉동)",
    "phone": "02-976-8811",
    "priceRange": {
      "min": 0,
      "max": 0
    },
    "hasParking": true,
    "coordinates": {
      "lat": 37.6178737,
      "lng": 127.0749016
    },
    "fileUrl": "/BCUser/facilitypic/1374897000689_1000000805_0.jpg"
  },
  {
    "id": "7000001626",
    "name": "양산서울요양병원장례식장",
    "category": "FUNERAL_HOME",
    "address": "경상남도 양산시 삼성7길 11-14,양산서울요양병원장례식장 (북정동)",
    "phone": "055-381-4144",
    "priceRange": {
      "min": 0,
      "max": 0
    },
    "hasParking": true,
    "coordinates": {
      "lat": 35.357828,
      "lng": 129.0419026
    },
    "fileUrl": "/BCUser/facilitypic/7000001626/1554269404148.jpg"
  },
  {
    "id": "7000002249",
    "name": "남천안장례식장",
    "category": "FUNERAL_HOME",
    "address": "충청남도 천안시 동남구 천안대로 215   남천안장례식장 (삼룡동, 천안효요양병원)",
    "phone": "041-523-4444",
    "priceRange": {
      "min": 0,
      "max": 0
    },
    "hasParking": true,
    "coordinates": {
      "lat": 36.767411,
      "lng": 127.165022
    },
    "fileUrl": "/BCUser/facilitypic/1565073498822_7000002249_0.jpg"
  },
  {
    "id": "1000000040",
    "name": "강화병원장례식장",
    "category": "FUNERAL_HOME",
    "address": "인천광역시 강화군 강화읍 강화대로312번길 11 (갑곳리, 강화병원)",
    "phone": "032-933-0405",
    "priceRange": {
      "min": 0,
      "max": 0
    },
    "hasParking": true,
    "coordinates": {
      "lat": 37.742148,
      "lng": 126.495633
    },
    "fileUrl": "/BCUser/facilitypic/1000000040/1555901126721.jpg"
  },
  {
    "id": "1000000190",
    "name": "플러스단원병원장례문화원",
    "category": "FUNERAL_HOME",
    "address": "경기도 안산시 단원구 원포공원로 10,지상1.2.3층 (초지동)",
    "phone": "031-410-4444",
    "priceRange": {
      "min": 0,
      "max": 0
    },
    "hasParking": true,
    "coordinates": {
      "lat": 37.300252,
      "lng": 126.811034
    },
    "fileUrl": "/BCUser/facilitypic/1000000190/1563429702731.jpg"
  },
  {
    "id": "1000000751",
    "name": "진도장례식장",
    "category": "FUNERAL_HOME",
    "address": "전라남도 진도군 진도읍 진도대로 7207 (동외리)",
    "phone": "061-544-4744",
    "priceRange": {
      "min": 0,
      "max": 0
    },
    "hasParking": true,
    "coordinates": {
      "lat": 34.4799867,
      "lng": 126.2711344
    },
    "fileUrl": "/BCUser/facilitypic/1485048181957_1000000751_0.jpg"
  },
  {
    "id": "1000000553",
    "name": "영광종합병원장례식장",
    "category": "FUNERAL_HOME",
    "address": "전라남도 영광군 영광읍 와룡로 3 (단주리)",
    "phone": "061-350-8044",
    "priceRange": {
      "min": 0,
      "max": 0
    },
    "hasParking": true,
    "coordinates": {
      "lat": 35.284178,
      "lng": 126.498024
    },
    "fileUrl": "/BCUser/facilitypic/1000000553/1564382707371.jpg"
  },
  {
    "id": "1000000284",
    "name": "벌교장례식장",
    "category": "FUNERAL_HOME",
    "address": "전라남도 보성군 벌교읍 남하로 26 (장좌리)",
    "phone": "061-858-4000",
    "priceRange": {
      "min": 0,
      "max": 0
    },
    "hasParking": true,
    "coordinates": {
      "lat": 34.833932,
      "lng": 127.346505
    },
    "fileUrl": "/BCUser/facilitypic/1000000284/1564386214858.jpg"
  },
  {
    "id": "1000000432",
    "name": "성혜원장례식장",
    "category": "FUNERAL_HOME",
    "address": "경기도 안성시 남파로 169, B1층 (당왕동, 안성성요셉병원)",
    "phone": "031-671-6500",
    "priceRange": {
      "min": 0,
      "max": 0
    },
    "hasParking": true,
    "coordinates": {
      "lat": 37.0166143,
      "lng": 127.2691299
    },
    "fileUrl": "/BCUser/facilitypic/1000000432/1559113828566.jpg"
  },
  {
    "id": "1000000481",
    "name": "시흥장례원",
    "category": "FUNERAL_HOME",
    "address": "경기도 시흥시 서해안로 586 (정왕동)",
    "phone": "031-434-4114",
    "priceRange": {
      "min": 0,
      "max": 0
    },
    "hasParking": true,
    "coordinates": {
      "lat": 37.3707325,
      "lng": 126.7388355
    },
    "fileUrl": "/BCUser/facilitypic/1709791810210.jpg"
  },
  {
    "id": "1000000506",
    "name": "아주대학병원장례식장",
    "category": "FUNERAL_HOME",
    "address": "경기도 수원시 영통구 광교중앙로49번길 46 (원천동)",
    "phone": "031-219-6654",
    "priceRange": {
      "min": 0,
      "max": 0
    },
    "hasParking": true,
    "coordinates": {
      "lat": 37.280919,
      "lng": 127.049463
    },
    "fileUrl": "/BCUser/facilitypic/1440671068000_1000000506_0.jpg"
  },
  {
    "id": "7000002025",
    "name": "충주기독장례식장",
    "category": "FUNERAL_HOME",
    "address": "충청북도 충주시 성남2길 7 (성남동)",
    "phone": "043-844-4460",
    "priceRange": {
      "min": 0,
      "max": 0
    },
    "hasParking": true,
    "coordinates": {
      "lat": 36.9683118,
      "lng": 127.9347266
    },
    "fileUrl": "/BCUser/facilitypic/7000002025/1554967397246.jpg"
  },
  {
    "id": "7000002827",
    "name": "남대구전문장례식장",
    "category": "FUNERAL_HOME",
    "address": "대구광역시 달서구 성서공단로 315 (장동)",
    "phone": "053-584-4444",
    "priceRange": {
      "min": 0,
      "max": 0
    },
    "hasParking": true,
    "coordinates": {
      "lat": null,
      "lng": null
    },
    "fileUrl": "/BCUser/facilitypic/1729766838229.jpg"
  },
  {
    "id": "7000002760",
    "name": "인천연세병원장례식장",
    "category": "FUNERAL_HOME",
    "address": "인천광역시 서구 승학로 320지하장례식장 (연희동, 연세병원)",
    "phone": "032-561-1024",
    "priceRange": {
      "min": 0,
      "max": 0
    },
    "hasParking": true,
    "coordinates": {
      "lat": 37.550258,
      "lng": 126.674386
    },
    "fileUrl": "/BCUser/facilitypic/7000002760/1709699114006.PNG"
  },
  {
    "id": "7000002814",
    "name": "예천권병원장례식장",
    "category": "FUNERAL_HOME",
    "address": "경상북도 예천군 예천읍 시장로 136 (동본리, 예천권병원)",
    "phone": "054-655-0456",
    "priceRange": {
      "min": 0,
      "max": 0
    },
    "hasParking": true,
    "coordinates": {
      "lat": null,
      "lng": null
    },
    "fileUrl": "/BCUser/facilitypic/1726321885415.jpg"
  },
  {
    "id": "1000000776",
    "name": "(주)천지문화원 (천지장례식장)",
    "category": "FUNERAL_HOME",
    "address": "광주광역시 서구 풍서좌로 173-1 (매월동)",
    "phone": "062-527-1000",
    "priceRange": {
      "min": 0,
      "max": 0
    },
    "hasParking": true,
    "coordinates": {
      "lat": 35.124769,
      "lng": 126.8500328
    },
    "fileUrl": "/BCUser/facilitypic/1470800082863_1000000776_0.jpg"
  },
  {
    "id": "7000000976",
    "name": "21C한일병원장례식장",
    "category": "FUNERAL_HOME",
    "address": "경상남도 거제시 사등면 지석로 70 (지석리)",
    "phone": "055-634-1014",
    "priceRange": {
      "min": 0,
      "max": 0
    },
    "hasParking": true,
    "coordinates": {
      "lat": 34.9015989,
      "lng": 128.5206265
    },
    "fileUrl": "/BCUser/facilitypic/7000000976/1554281144073.jpg"
  },
  {
    "id": "1000000768",
    "name": "원광대학교병원장례문화원(천도장례식장)",
    "category": "FUNERAL_HOME",
    "address": "전라북도 익산시 무왕로 895 (신동) 원광대학교병원 장례식장",
    "phone": "063-855-1734",
    "priceRange": {
      "min": 0,
      "max": 0
    },
    "hasParking": true,
    "coordinates": {
      "lat": 35.964674,
      "lng": 126.963131
    },
    "fileUrl": "/BCUser/facilitypic/1000000768/1555487815845.png"
  },
  {
    "id": "1000000401",
    "name": "선산전문장례식장",
    "category": "FUNERAL_HOME",
    "address": "경상북도 구미시 선산읍 선상동로 58 (생곡리)",
    "phone": "054-482-1414",
    "priceRange": {
      "min": 0,
      "max": 0
    },
    "hasParking": true,
    "coordinates": {
      "lat": 36.2667515,
      "lng": 128.3177135
    },
    "fileUrl": "/BCUser/facilitypic/1000000401/1560329845780.jpg"
  },
  {
    "id": "1000000795",
    "name": "추병원장례식장",
    "category": "FUNERAL_HOME",
    "address": "경기도 의정부시 평화로 650 (의정부동)",
    "phone": "031-844-4442",
    "priceRange": {
      "min": 0,
      "max": 0
    },
    "hasParking": true,
    "coordinates": {
      "lat": 37.7496652,
      "lng": 127.0453498
    },
    "fileUrl": "/BCUser/facilitypic/1000000795/1563436376714.jpg"
  },
  {
    "id": "1000000634",
    "name": "월명장례식장",
    "category": "FUNERAL_HOME",
    "address": "전라북도 군산시 미룡갈마길 75 (신관동)",
    "phone": "063-468-4851",
    "priceRange": {
      "min": 0,
      "max": 0
    },
    "hasParking": true,
    "coordinates": {
      "lat": 35.9344998,
      "lng": 126.689665
    },
    "fileUrl": "/BCUser/facilitypic/1000000634/1554341132261.png"
  },
  {
    "id": "1000000197",
    "name": "대구기독병원장례식장",
    "category": "FUNERAL_HOME",
    "address": "대구광역시 달서구 달구벌대로 1750 (두류동)",
    "phone": "053-627-4447",
    "priceRange": {
      "min": 0,
      "max": 0
    },
    "hasParking": true,
    "coordinates": {
      "lat": 35.8569457,
      "lng": 128.5568928
    },
    "fileUrl": "/BCUser/facilitypic/1000000197/1555488107596.png"
  },
  {
    "id": "1000000547",
    "name": "더연수장례식장",
    "category": "FUNERAL_HOME",
    "address": "인천광역시 연수구 벚꽃로 122 (연수동)",
    "phone": "032-819-1024",
    "priceRange": {
      "min": 0,
      "max": 0
    },
    "hasParking": true,
    "coordinates": {
      "lat": 37.4167519,
      "lng": 126.6788235
    },
    "fileUrl": "/BCUser/facilitypic/1000000547/1561104890581.png"
  },
  {
    "id": "1000000200",
    "name": "대구파티마병원장례식장",
    "category": "FUNERAL_HOME",
    "address": "대구광역시 동구 아양로 99 (신암동, 파티마병원)",
    "phone": "053-958-9000",
    "priceRange": {
      "min": 0,
      "max": 0
    },
    "hasParking": true,
    "coordinates": {
      "lat": 35.883824,
      "lng": 128.623212
    },
    "fileUrl": "/BCUser/facilitypic/1000000200/1563425275822.jpg"
  },
  {
    "id": "1000000732",
    "name": "중앙병원장례예식장",
    "category": "FUNERAL_HOME",
    "address": "울산광역시 남구 문수로480번길 10 (신정동, 중앙병원)",
    "phone": "052-260-1006",
    "priceRange": {
      "min": 0,
      "max": 0
    },
    "hasParking": true,
    "coordinates": {
      "lat": 35.53151,
      "lng": 129.30521
    },
    "fileUrl": "/BCUser/facilitypic/1000000732/1560318342390.jpg"
  },
  {
    "id": "1000000122",
    "name": "굿뉴스요양병원장례식장",
    "category": "FUNERAL_HOME",
    "address": "경상남도 거제시 거제면 거제남서로 3554 (서정리, 굿뉴스병원)",
    "phone": "055-633-0844",
    "priceRange": {
      "min": 0,
      "max": 0
    },
    "hasParking": true,
    "coordinates": {
      "lat": 34.8573816,
      "lng": 128.583841
    },
    "fileUrl": "/BCUser/facilitypic/1000000122/1554280301075.jpg"
  },
  {
    "id": "7000000368",
    "name": "화성중앙종합병원장례식장",
    "category": "FUNERAL_HOME",
    "address": "경기도 화성시 향남읍 발안로 5 (평리, 화성중앙병원)",
    "phone": "031-352-4483",
    "priceRange": {
      "min": 0,
      "max": 0
    },
    "hasParking": true,
    "coordinates": {
      "lat": 37.1313154,
      "lng": 126.9107719
    },
    "fileUrl": "/BCUser/facilitypic/7000000368/1560313801252.jpg"
  },
  {
    "id": "7000000666",
    "name": "참사랑장례식장",
    "category": "FUNERAL_HOME",
    "address": "인천광역시 강화군 선원면 중앙로 271 (창리, 참사랑장례식장)",
    "phone": "032-932-4200",
    "priceRange": {
      "min": 0,
      "max": 0
    },
    "hasParking": true,
    "coordinates": {
      "lat": 37.722729,
      "lng": 126.480484
    },
    "fileUrl": "/BCUser/facilitypic/7000000666/1560329375313.jpg"
  },
  {
    "id": "7000000395",
    "name": "남양주장례식장(구 남양동산)",
    "category": "FUNERAL_HOME",
    "address": "경기도 남양주시 진건읍 진건오남로 458 (송능리)",
    "phone": "031-528-4444",
    "priceRange": {
      "min": 0,
      "max": 0
    },
    "hasParking": true,
    "coordinates": {
      "lat": 37.6760609,
      "lng": 127.2066916
    },
    "fileUrl": "/BCUser/facilitypic/7000000395/1555488274430.jpg"
  },
  {
    "id": "1000000187",
    "name": "단국대학교병원 천안장례식장",
    "category": "FUNERAL_HOME",
    "address": "충청남도 천안시 동남구 망향로 201 (안서동)",
    "phone": "041-550-7474",
    "priceRange": {
      "min": 0,
      "max": 0
    },
    "hasParking": true,
    "coordinates": {
      "lat": 36.843278,
      "lng": 127.172398
    },
    "fileUrl": "/BCUser/facilitypic/1000000187/1555907181318.jpg"
  },
  {
    "id": "1000000562",
    "name": "부산영락공원장례식장",
    "category": "FUNERAL_HOME",
    "address": "부산광역시 금정구 금정도서관로 108 (두구동, 영락공원)",
    "phone": "051-790-5000",
    "priceRange": {
      "min": 0,
      "max": 0
    },
    "hasParking": true,
    "coordinates": {
      "lat": 35.2733077,
      "lng": 129.1042192
    },
    "fileUrl": "/BCUser/facilitypic/1465957200350_1000000562_0.jpg"
  },
  {
    "id": "1000000828",
    "name": "포항시민전문장례식장",
    "category": "FUNERAL_HOME",
    "address": "경상북도 포항시 북구 새천년대로 1191 (장성동)",
    "phone": "054-253-4444",
    "priceRange": {
      "min": 0,
      "max": 0
    },
    "hasParking": true,
    "coordinates": {
      "lat": 36.0732257,
      "lng": 129.377819
    },
    "fileUrl": "/BCUser/facilitypic/1000000828/1559108713399.jpg"
  },
  {
    "id": "7000002547",
    "name": "송산장례문화원",
    "category": "FUNERAL_HOME",
    "address": "경기도 화성시 송산면 화성로 284 (육일리)",
    "phone": "031-357-9800",
    "priceRange": {
      "min": 0,
      "max": 0
    },
    "hasParking": true,
    "coordinates": {
      "lat": 37.202708,
      "lng": 126.725504
    },
    "fileUrl": "/BCUser/facilitypic/7000002547/1709688601337.PNG"
  },
  {
    "id": "7000002017",
    "name": "원광종합병원장례식장",
    "category": "FUNERAL_HOME",
    "address": "경기도 화성시 화산북로 21 (송산동)",
    "phone": "031-226-4444",
    "priceRange": {
      "min": 0,
      "max": 0
    },
    "hasParking": true,
    "coordinates": {
      "lat": 37.209942,
      "lng": 127.008324
    },
    "fileUrl": "/BCUser/facilitypic/7000002017/1536989039805.jpg"
  },
  {
    "id": "7000002666",
    "name": "주식회사하늘정원장례식장",
    "category": "FUNERAL_HOME",
    "address": "강원도 삼척시 강원남부로 4539 (등봉동, 하늘정원장례식장)",
    "phone": "033-575-4441",
    "priceRange": {
      "min": 0,
      "max": 0
    },
    "hasParking": true,
    "coordinates": {
      "lat": 37.455777,
      "lng": 129.118164
    },
    "fileUrl": "/BCUser/facilitypic/7000002666/1709688706989.PNG"
  },
  {
    "id": "7000002661",
    "name": "쉴낙원 당진장례식장",
    "category": "FUNERAL_HOME",
    "address": "충청남도 당진시 남부로 28 (채운동, 당진장례식장)",
    "phone": "041-354-4444",
    "priceRange": {
      "min": 0,
      "max": 0
    },
    "hasParking": true,
    "coordinates": {
      "lat": 36.883479,
      "lng": 126.619429
    },
    "fileUrl": "/BCUser/facilitypic/7000002661/1709689289800.PNG"
  },
  {
    "id": "1000000678",
    "name": "전북대학교병원장례식장",
    "category": "FUNERAL_HOME",
    "address": "전라북도 전주시 덕진구 건지로 20 (금암동, 전북대학병원)",
    "phone": "063-250-1439",
    "priceRange": {
      "min": 0,
      "max": 0
    },
    "hasParking": true,
    "coordinates": {
      "lat": 35.846837,
      "lng": 127.141189
    },
    "fileUrl": "/BCUser/facilitypic/1544587874951_1000000678_0.jpg"
  },
  {
    "id": "1000000331",
    "name": "분당차병원장례식장",
    "category": "FUNERAL_HOME",
    "address": "경기도 성남시 분당구 야탑로 59 (야탑동, 분당차병원)",
    "phone": "031-780-6170",
    "priceRange": {
      "min": 0,
      "max": 0
    },
    "hasParking": true,
    "coordinates": {
      "lat": 37.410607,
      "lng": 127.125649
    },
    "fileUrl": "/BCUser/facilitypic/1000000331/1554967081425.jpg"
  },
  {
    "id": "1000000523",
    "name": "효자장례타운",
    "category": "FUNERAL_HOME",
    "address": "전라북도 전주시 완산구 콩쥐팥쥐로 1705-36 (효자동3가)",
    "phone": "063-228-4441",
    "priceRange": {
      "min": 0,
      "max": 0
    },
    "hasParking": true,
    "coordinates": {
      "lat": 35.8248592,
      "lng": 127.0852614
    },
    "fileUrl": "/BCUser/facilitypic/1539670814896_1000000523_0.jpg"
  },
  {
    "id": "6000000229",
    "name": "태평서울병원소망장례식장",
    "category": "FUNERAL_HOME",
    "address": "경기도 성남시 수정구 성남대로 1219 B01 (수진동, 새소망병원)",
    "phone": "031-751-3344",
    "priceRange": {
      "min": 0,
      "max": 0
    },
    "hasParking": true,
    "coordinates": {
      "lat": 37.4385897,
      "lng": 127.1274289
    },
    "fileUrl": "/BCUser/facilitypic/1704762946126.jpg"
  },
  {
    "id": "1000000106",
    "name": "구로성심병원장례식장",
    "category": "FUNERAL_HOME",
    "address": "서울특별시 구로구 경인로 427 (고척동)",
    "phone": "02-2067-1544",
    "priceRange": {
      "min": 0,
      "max": 0
    },
    "hasParking": true,
    "coordinates": {
      "lat": 37.4996208,
      "lng": 126.866356
    },
    "fileUrl": "/BCUser/facilitypic/1000000106/1554360927268.png"
  },
  {
    "id": "1000000681",
    "name": "정선병원장례식장",
    "category": "FUNERAL_HOME",
    "address": "강원특별자치도 정선군 정선읍 봉양1길 145 (봉양리)",
    "phone": "033-562-4444",
    "priceRange": {
      "min": 0,
      "max": 0
    },
    "hasParking": true,
    "coordinates": {
      "lat": 37.3830173,
      "lng": 128.6587563
    },
    "fileUrl": "/BCUser/facilitypic/1000000681/1555316144980.jpg"
  },
  {
    "id": "1000000423",
    "name": "영암농협장례식장",
    "category": "FUNERAL_HOME",
    "address": "전라남도 영암군 영암읍 낭주로 49 (춘양리)",
    "phone": "061-472-5544",
    "priceRange": {
      "min": 0,
      "max": 0
    },
    "hasParking": true,
    "coordinates": {
      "lat": 34.795218,
      "lng": 126.708931
    },
    "fileUrl": "/BCUser/facilitypic/1508974244459_1000000423_0.jpg"
  },
  {
    "id": "7000000566",
    "name": "성남시장례협동조합",
    "category": "FUNERAL_HOME",
    "address": "경기도 성남시 중원구 순암로 800 (갈현동)",
    "phone": "031-752-0404",
    "priceRange": {
      "min": 0,
      "max": 0
    },
    "hasParking": true,
    "coordinates": {
      "lat": 37.421439,
      "lng": 127.182781
    },
    "fileUrl": "/BCUser/facilitypic/1374818690977_7000000566_0.JPG"
  },
  {
    "id": "7000001039",
    "name": "녹동농협 장례식장",
    "category": "FUNERAL_HOME",
    "address": "전라남도 고흥군 도양읍 거금로 80 (봉암리)",
    "phone": "061-840-7777",
    "priceRange": {
      "min": 0,
      "max": 0
    },
    "hasParking": true,
    "coordinates": {
      "lat": 34.538833,
      "lng": 127.131664
    },
    "fileUrl": "/BCUser/facilitypic/7000001039/1555305179264.jpg"
  },
  {
    "id": "7000002267",
    "name": "속초동해장례식장",
    "category": "FUNERAL_HOME",
    "address": "강원특별자치도 속초시 중앙로 7 (교동)",
    "phone": "033-633-3964",
    "priceRange": {
      "min": 0,
      "max": 0
    },
    "hasParking": true,
    "coordinates": {
      "lat": 38.197719,
      "lng": 128.578253
    },
    "fileUrl": "/BCUser/facilitypic/7000002267/1576462942368.jpg"
  },
  {
    "id": "7000002479",
    "name": "쉴낙원 오산동탄장례식장",
    "category": "FUNERAL_HOME",
    "address": "경기도 오산시 경기대로658번길 30 (내삼미동, 오산동탄쉴낙원)",
    "phone": "031-966-1009",
    "priceRange": {
      "min": 0,
      "max": 0
    },
    "hasParking": true,
    "coordinates": {
      "lat": 37.180412,
      "lng": 127.055983
    },
    "fileUrl": "/BCUser/facilitypic/1610246266671.png"
  },
  {
    "id": "7000002170",
    "name": "순천중앙병원장례식장",
    "category": "FUNERAL_HOME",
    "address": "전라남도 순천시 장명로 5 (장천동, 중앙병원)",
    "phone": "061-744-0444",
    "priceRange": {
      "min": 0,
      "max": 0
    },
    "hasParking": true,
    "coordinates": {
      "lat": 34.951272,
      "lng": 127.484422
    },
    "fileUrl": "/BCUser/facilitypic/7000002170/1554185704561.gif"
  },
  {
    "id": "1000000934",
    "name": "효원장례문화센타",
    "category": "FUNERAL_HOME",
    "address": "경기도 화성시 정조로 107 (반정동)",
    "phone": "031-222-0999",
    "priceRange": {
      "min": 0,
      "max": 0
    },
    "hasParking": true,
    "coordinates": {
      "lat": 37.220856,
      "lng": 127.026197
    },
    "fileUrl": "/BCUser/facilitypic/1000000934/1560313881684.jpg"
  },
  {
    "id": "7000002716",
    "name": "화성유일병원장례식장",
    "category": "FUNERAL_HOME",
    "address": "경기도 화성시 남양읍 남양로920번길 6 (북양리)",
    "phone": "031-355-4744",
    "priceRange": {
      "min": 0,
      "max": 0
    },
    "hasParking": false,
    "coordinates": {
      "lat": 37.21746,
      "lng": 126.832569
    },
    "fileUrl": "/BCUser/facilitypic/1695099491973.png"
  },
  {
    "id": "7000000423",
    "name": "보람새천년장례식장",
    "category": "FUNERAL_HOME",
    "address": "인천광역시 계양구 아나지로 541 (서운동)",
    "phone": "032-552-3100",
    "priceRange": {
      "min": 0,
      "max": 0
    },
    "hasParking": true,
    "coordinates": {
      "lat": 37.5264805,
      "lng": 126.7529027
    },
    "fileUrl": "/BCUser/facilitypic/1510284562471_7000000423_0.jpg"
  },
  {
    "id": "7000000679",
    "name": "보람의정부장례식장",
    "category": "FUNERAL_HOME",
    "address": "경기도 의정부시 추동로 253, B1층 (신곡동)",
    "phone": "031-851-4444",
    "priceRange": {
      "min": 0,
      "max": 0
    },
    "hasParking": true,
    "coordinates": {
      "lat": 37.7522267,
      "lng": 127.0806914
    },
    "fileUrl": "/BCUser/facilitypic/7000000679/1761287248225.jpg"
  },
  {
    "id": "1000000660",
    "name": "국민건강보험공단일산병원장례식장",
    "category": "FUNERAL_HOME",
    "address": "경기도 고양시 일산동구 일산로 100 (백석동, 국민건강보험공단일산병원)",
    "phone": "031-900-0444",
    "priceRange": {
      "min": 0,
      "max": 0
    },
    "hasParking": true,
    "coordinates": {
      "lat": 37.6454297,
      "lng": 126.7929091
    },
    "fileUrl": "/BCUser/facilitypic/1000000660/1554272161376.jpg"
  },
  {
    "id": "7000002282",
    "name": "대연장례식장",
    "category": "FUNERAL_HOME",
    "address": "부산광역시 남구 수영로 164 (대연동)",
    "phone": "051-711-4448",
    "priceRange": {
      "min": 0,
      "max": 0
    },
    "hasParking": true,
    "coordinates": {
      "lat": 35.134506,
      "lng": 129.084521
    },
    "fileUrl": "/BCUser/facilitypic/1578365141063_7000002282_0.jpg"
  },
  {
    "id": "7000002461",
    "name": "세종충남대학교병원 쉴낙원장례식장",
    "category": "FUNERAL_HOME",
    "address": "세종특별자치시   보듬7로 20 세종충남대학교병원 (아름동)",
    "phone": "044-863-4444",
    "priceRange": {
      "min": 0,
      "max": 0
    },
    "hasParking": true,
    "coordinates": {
      "lat": 36.519597,
      "lng": 127.257943
    },
    "fileUrl": "/BCUser/facilitypic/1647732680688.png"
  },
  {
    "id": "7000002869",
    "name": "대구상례원전문장례식장",
    "category": "FUNERAL_HOME",
    "address": "대구광역시 북구 호국로 133 (서변동)",
    "phone": "053-952-4000",
    "priceRange": {
      "min": 0,
      "max": 0
    },
    "hasParking": true,
    "coordinates": {
      "lat": null,
      "lng": null
    },
    "fileUrl": "/BCUser/facilitypic/1741854971871.jpg"
  },
  {
    "id": "7000002277",
    "name": "정다운 장례식장",
    "category": "FUNERAL_HOME",
    "address": "전라남도 목포시 영산로 710-11 (석현동)",
    "phone": "061-287-9444",
    "priceRange": {
      "min": 0,
      "max": 0
    },
    "hasParking": true,
    "coordinates": {
      "lat": 34.8290933508,
      "lng": 126.4219819748
    },
    "fileUrl": "/BCUser/facilitypic/1703221104389.jpg"
  },
  {
    "id": "7000001290",
    "name": "한림대동탄성심병원장례식장",
    "category": "FUNERAL_HOME",
    "address": "경기도 화성시 큰재봉길 7 (석우동, 한림대학교동탄성심병원)",
    "phone": "031-8003-4410",
    "priceRange": {
      "min": 0,
      "max": 0
    },
    "hasParking": false,
    "coordinates": {
      "lat": 37.2165578,
      "lng": 127.0800512
    },
    "fileUrl": "/BCUser/facilitypic/7000001290/1560313576010.jpg"
  },
  {
    "id": "1000000270",
    "name": "문경제일병원장례식장",
    "category": "FUNERAL_HOME",
    "address": "경상북도 문경시 당교3길 25 (모전동)",
    "phone": "054-550-7948",
    "priceRange": {
      "min": 0,
      "max": 0
    },
    "hasParking": true,
    "coordinates": {
      "lat": 36.584376,
      "lng": 128.189734
    },
    "fileUrl": "/BCUser/facilitypic/1000000270/1555900971166.gif"
  },
  {
    "id": "7000000890",
    "name": "미루병원장례식장",
    "category": "FUNERAL_HOME",
    "address": "경상북도 경주시 안강읍 화전북4길 8 (산대리)",
    "phone": "054-762-4404",
    "priceRange": {
      "min": 0,
      "max": 0
    },
    "hasParking": true,
    "coordinates": {
      "lat": 35.9939328,
      "lng": 129.2084746
    },
    "fileUrl": "/BCUser/facilitypic/7000000890/1560327646585.jpg"
  },
  {
    "id": "7000001074",
    "name": "제일장례식장",
    "category": "FUNERAL_HOME",
    "address": "경상북도 상주시 영남제일로 1408-15 (복룡동)",
    "phone": "054-531-4411",
    "priceRange": {
      "min": 0,
      "max": 0
    },
    "hasParking": true,
    "coordinates": {
      "lat": 36.421511,
      "lng": 128.187068
    },
    "fileUrl": "/BCUser/facilitypic/7000001074/1563515493537.jpg"
  },
  {
    "id": "1000000624",
    "name": "울산영락원",
    "category": "FUNERAL_HOME",
    "address": "울산광역시 남구 산업로517번길 10 (여천동, 울산영락원장례식장)",
    "phone": "052-272-1111",
    "priceRange": {
      "min": 0,
      "max": 0
    },
    "hasParking": true,
    "coordinates": {
      "lat": 35.5287258,
      "lng": 129.3461824
    },
    "fileUrl": "/BCUser/facilitypic/1512534666915_1000000624_0.JPG"
  },
  {
    "id": "1000000267",
    "name": "무안제일병원 무안장례식장",
    "category": "FUNERAL_HOME",
    "address": "전라남도 무안군 무안읍 무안로 567-1 (성동리)",
    "phone": "061-454-9340",
    "priceRange": {
      "min": 0,
      "max": 0
    },
    "hasParking": true,
    "coordinates": {
      "lat": 34.993736,
      "lng": 126.482011
    },
    "fileUrl": "/BCUser/facilitypic/1473127369486_1000000267_0.jpg"
  },
  {
    "id": "7000002877",
    "name": "도계장례식장",
    "category": "FUNERAL_HOME",
    "address": "강원특별자치도 삼척시 도계읍 도계로3길 16-25 (전두리, 도계장례식장)",
    "phone": "033-541-2404",
    "priceRange": {
      "min": 0,
      "max": 0
    },
    "hasParking": true,
    "coordinates": {
      "lat": null,
      "lng": null
    },
    "fileUrl": "/BCUser/facilitypic/7000002877/1745281192723.jpg"
  },
  {
    "id": "7000002808",
    "name": "재단법인 일산장안추모공원",
    "category": "FUNERAL_HOME",
    "address": "경기도 고양시 일산동구 백마로502번길 64-13 (풍동)",
    "phone": "031-903-6650",
    "priceRange": {
      "min": 0,
      "max": 0
    },
    "hasParking": true,
    "coordinates": {
      "lat": null,
      "lng": null
    },
    "fileUrl": "/BCUser/facilitypic/7000002808/1724742028048.PNG"
  },
  {
    "id": "1000000281",
    "name": "백제병원장례식장",
    "category": "FUNERAL_HOME",
    "address": "충청남도 논산시 시민로294번길 14 (내동)",
    "phone": "041-735-1022",
    "priceRange": {
      "min": 0,
      "max": 0
    },
    "hasParking": true,
    "coordinates": {
      "lat": 36.1919187,
      "lng": 127.0945012
    },
    "fileUrl": "/BCUser/facilitypic/1000000281/1564385261296.jpg"
  },
  {
    "id": "1000000552",
    "name": "영광장례식장",
    "category": "FUNERAL_HOME",
    "address": "전라남도 영광군 영광읍 영대로 238 (무령리)",
    "phone": "061-350-6000",
    "priceRange": {
      "min": 0,
      "max": 0
    },
    "hasParking": true,
    "coordinates": {
      "lat": 35.2860391,
      "lng": 126.5115047
    },
    "fileUrl": "/BCUser/facilitypic/1000000552/1563428230013.jpg"
  },
  {
    "id": "1000000044",
    "name": "거창적십자병원장례식장",
    "category": "FUNERAL_HOME",
    "address": "경상남도 거창군 거창읍 중앙로 91 (상림리, 거창적십자병원)",
    "phone": "055-944-4482",
    "priceRange": {
      "min": 0,
      "max": 0
    },
    "hasParking": true,
    "coordinates": {
      "lat": 35.686609,
      "lng": 127.908951
    },
    "fileUrl": "/BCUser/facilitypic/1443602671664_1000000044_0.jpg"
  },
  {
    "id": "1000000096",
    "name": "광주병원장례식장",
    "category": "FUNERAL_HOME",
    "address": "광주광역시 북구 면앙로139번길 51, 지하2층 (두암동)",
    "phone": "062-260-7850",
    "priceRange": {
      "min": 0,
      "max": 0
    },
    "hasParking": true,
    "coordinates": {
      "lat": 35.1788817,
      "lng": 126.9281914
    },
    "fileUrl": "/BCUser/facilitypic/1000000096/1559110401842.jpg"
  },
  {
    "id": "1000000498",
    "name": "세안종합병원장례식장",
    "category": "FUNERAL_HOME",
    "address": "전라남도 목포시 고하대로 795-2 (연산동)",
    "phone": "061-276-4444",
    "priceRange": {
      "min": 0,
      "max": 0
    },
    "hasParking": true,
    "coordinates": {
      "lat": 34.8170249,
      "lng": 126.3802509
    },
    "fileUrl": "/BCUser/facilitypic/1000000498/1563425679725.jpg"
  },
  {
    "id": "7000001236",
    "name": "장흥병원장례식장",
    "category": "FUNERAL_HOME",
    "address": "전라남도 장흥군 장흥읍 흥성로 74 (건산리)",
    "phone": "061-864-4444",
    "priceRange": {
      "min": 0,
      "max": 0
    },
    "hasParking": true,
    "coordinates": {
      "lat": 34.677189,
      "lng": 126.910992
    },
    "fileUrl": "/BCUser/facilitypic/7000001236/1563434168132.png"
  },
  {
    "id": "7000002757",
    "name": "소다미(주)동강병원장례식장",
    "category": "FUNERAL_HOME",
    "address": "울산광역시 중구 태화로 240지하1,2층 (태화동, 동강병원남관)",
    "phone": "052-241-1440",
    "priceRange": {
      "min": 0,
      "max": 0
    },
    "hasParking": true,
    "coordinates": {
      "lat": 35.552106,
      "lng": 129.301636
    },
    "fileUrl": "/BCUser/facilitypic/1706250050457.jpg"
  },
  {
    "id": "7000002630",
    "name": "단양장례식장",
    "category": "FUNERAL_HOME",
    "address": "충청북도 단양군 단양읍 수양개유적로 6 (상진리, 단양장례식장)",
    "phone": "043-421-4444",
    "priceRange": {
      "min": 0,
      "max": 0
    },
    "hasParking": true,
    "coordinates": {
      "lat": 36.990788,
      "lng": 128.336182
    },
    "fileUrl": "/BCUser/facilitypic/7000002630/1709689742964.PNG"
  },
  {
    "id": "1000000901",
    "name": "반송장례식장",
    "category": "FUNERAL_HOME",
    "address": "부산광역시 해운대구 반송로 832 (반송동)",
    "phone": "051-525-1024",
    "priceRange": {
      "min": 0,
      "max": 0
    },
    "hasParking": true,
    "coordinates": {
      "lat": 35.2277586,
      "lng": 129.1470851
    },
    "fileUrl": "/BCUser/facilitypic/1480763595447_1000000901_0.jpg"
  },
  {
    "id": "1000000618",
    "name": "운경의료재단곽병원장례식장",
    "category": "FUNERAL_HOME",
    "address": "대구광역시 중구 국채보상로 531 (수동, 곽병원)",
    "phone": "053-252-1023",
    "priceRange": {
      "min": 0,
      "max": 0
    },
    "hasParking": true,
    "coordinates": {
      "lat": 35.8707148,
      "lng": 128.5887352
    },
    "fileUrl": "/BCUser/facilitypic/1000000618/1554971470262.jpg"
  },
  {
    "id": "1000000702",
    "name": "제천제일장례식장",
    "category": "FUNERAL_HOME",
    "address": "충청북도 제천시 내토로10길 21 (천남동)",
    "phone": "043-645-4114",
    "priceRange": {
      "min": 0,
      "max": 0
    },
    "hasParking": true,
    "coordinates": {
      "lat": 37.1294907,
      "lng": 128.196616
    },
    "fileUrl": "/BCUser/facilitypic/1000000702/1555312551035.jpg"
  },
  {
    "id": "1000000711",
    "name": "좋은삼정병원장례식장",
    "category": "FUNERAL_HOME",
    "address": "울산광역시 남구 북부순환도로 51 (무거동)",
    "phone": "052-220-7799",
    "priceRange": {
      "min": 0,
      "max": 0
    },
    "hasParking": true,
    "coordinates": {
      "lat": 35.5528284,
      "lng": 129.2690588
    },
    "fileUrl": "/BCUser/facilitypic/1000000711/1555913364023.jpg"
  },
  {
    "id": "1000000818",
    "name": "(유)익산팔봉장례식장",
    "category": "FUNERAL_HOME",
    "address": "전라북도 익산시 무왕로 1671 (덕기동, 익산팔봉장례식장)",
    "phone": "063-833-8080",
    "priceRange": {
      "min": 0,
      "max": 0
    },
    "hasParking": true,
    "coordinates": {
      "lat": 35.9763367,
      "lng": 127.0360285
    },
    "fileUrl": "/BCUser/facilitypic/1465951921887_1000000818_0.jpg"
  },
  {
    "id": "1000000124",
    "name": "굿모닝병원장례식장",
    "category": "FUNERAL_HOME",
    "address": "울산광역시 남구 삼산로 110 (달동)",
    "phone": "052-256-7444",
    "priceRange": {
      "min": 0,
      "max": 0
    },
    "hasParking": true,
    "coordinates": {
      "lat": 35.5349553,
      "lng": 129.3198756
    },
    "fileUrl": "/BCUser/facilitypic/1000000124/1554958612750.jpg"
  },
  {
    "id": "7000000941",
    "name": "의정부장례예식장",
    "category": "FUNERAL_HOME",
    "address": "경기도 의정부시 체육로 113-18 (녹양동)",
    "phone": "031-871-4444",
    "priceRange": {
      "min": 0,
      "max": 0
    },
    "hasParking": true,
    "coordinates": {
      "lat": 37.75742,
      "lng": 127.022225
    },
    "fileUrl": "/BCUser/facilitypic/1403921929994_7000000941_0.jpg"
  },
  {
    "id": "7000001117",
    "name": "서천한국장례식장",
    "category": "FUNERAL_HOME",
    "address": "충청남도 서천군 마서면 어리길 205-7 (어리)",
    "phone": "041-952-0004",
    "priceRange": {
      "min": 0,
      "max": 0
    },
    "hasParking": false,
    "coordinates": {
      "lat": 36.0565739,
      "lng": 126.7048741
    },
    "fileUrl": "/BCUser/facilitypic/7000001117/1564473101535.jpg"
  },
  {
    "id": "7000000502",
    "name": "배방장례식장",
    "category": "FUNERAL_HOME",
    "address": "충청남도 아산시 배방읍 갈산교로 38 (구령리)",
    "phone": "041-544-1500",
    "priceRange": {
      "min": 0,
      "max": 0
    },
    "hasParking": true,
    "coordinates": {
      "lat": 36.7805432,
      "lng": 127.0641827
    },
    "fileUrl": "/BCUser/facilitypic/7000000502/1561612987140.jpg"
  },
  {
    "id": "1000000537",
    "name": "여주장례식장",
    "category": "FUNERAL_HOME",
    "address": "경기도 여주시 세종대왕면 중부대로 2710-48 (능서면 왕대리 981-7) ",
    "phone": "031-885-1919",
    "priceRange": {
      "min": 0,
      "max": 0
    },
    "hasParking": true,
    "coordinates": {
      "lat": 37.2963789,
      "lng": 127.6090216
    },
    "fileUrl": "/BCUser/facilitypic/1719551062130.jpg"
  },
  {
    "id": "1000000474",
    "name": "숭례관장례식장",
    "category": "FUNERAL_HOME",
    "address": "경상남도 통영시 충렬로 8-5 (서호동)",
    "phone": "055-643-1024",
    "priceRange": {
      "min": 0,
      "max": 0
    },
    "hasParking": false,
    "coordinates": {
      "lat": 34.8427585,
      "lng": 128.4198244
    },
    "fileUrl": "/BCUser/facilitypic/1000000474/1554950501083.jpg"
  },
  {
    "id": "1000000427",
    "name": "성요한병원장례식장",
    "category": "FUNERAL_HOME",
    "address": "광주광역시 북구 태봉로 32 (유동, 천주의성요한병의원)",
    "phone": "062-510-3005",
    "priceRange": {
      "min": 0,
      "max": 0
    },
    "hasParking": true,
    "coordinates": {
      "lat": 35.160234,
      "lng": 126.9033
    },
    "fileUrl": "/BCUser/facilitypic/1467285673574_1000000427_0.jpg"
  },
  {
    "id": "1000000879",
    "name": "함열장례식장",
    "category": "FUNERAL_HOME",
    "address": "전라북도 익산시 함열읍 정동1길 6-9 (와리)",
    "phone": "063-862-4444",
    "priceRange": {
      "min": 0,
      "max": 0
    },
    "hasParking": false,
    "coordinates": {
      "lat": 36.0730045,
      "lng": 126.9661123
    },
    "fileUrl": "/BCUser/facilitypic/1000000879/1555486868104.png"
  },
  {
    "id": "1000000915",
    "name": "홍천아산병원장례식장",
    "category": "FUNERAL_HOME",
    "address": "강원도 홍천군 홍천읍 산림공원1길 17 (갈마곡리)",
    "phone": "033-430-5420",
    "priceRange": {
      "min": 0,
      "max": 0
    },
    "hasParking": true,
    "coordinates": {
      "lat": 37.690866,
      "lng": 127.894951
    },
    "fileUrl": "/BCUser/facilitypic/1000000915/1555317380720.jpg"
  },
  {
    "id": "7000001501",
    "name": "광주남문장례식장(주)",
    "category": "FUNERAL_HOME",
    "address": "광주광역시 남구 서문대로499번길 26-15 (송하동)",
    "phone": "062-675-5000",
    "priceRange": {
      "min": 0,
      "max": 0
    },
    "hasParking": true,
    "coordinates": {
      "lat": 35.1114508,
      "lng": 126.8869917
    },
    "fileUrl": "/BCUser/facilitypic/1740320087382.png"
  },
  {
    "id": "7000002319",
    "name": "광양우리병원장례식장",
    "category": "FUNERAL_HOME",
    "address": "전라남도 광양시 광양읍 숲샘길 80 (인서리)",
    "phone": "061-761-4445",
    "priceRange": {
      "min": 0,
      "max": 0
    },
    "hasParking": true,
    "coordinates": {
      "lat": 34.970326,
      "lng": 127.586464
    },
    "fileUrl": "/BCUser/facilitypic/1585018672102_7000002319_0.jpg"
  },
  {
    "id": "1000000764",
    "name": "창녕군공설장례식장",
    "category": "FUNERAL_HOME",
    "address": "경상남도 창녕군 창녕읍 탐하로 201 (술정리)",
    "phone": "055-533-8510",
    "priceRange": {
      "min": 0,
      "max": 0
    },
    "hasParking": true,
    "coordinates": {
      "lat": 35.532448,
      "lng": 128.490523
    },
    "fileUrl": "/BCUser/facilitypic/1679361421862.jpg"
  },
  {
    "id": "1000000486",
    "name": "보람인천장례식장",
    "category": "FUNERAL_HOME",
    "address": "인천광역시 서구 경명대로 468 (경서동)",
    "phone": "032-568-4000",
    "priceRange": {
      "min": 0,
      "max": 0
    },
    "hasParking": true,
    "coordinates": {
      "lat": 37.5517305,
      "lng": 126.6601128
    },
    "fileUrl": "/BCUser/facilitypic/1471321338282_1000000486_0.jpg"
  },
  {
    "id": "1000000004",
    "name": "(유)동이리장례식장",
    "category": "FUNERAL_HOME",
    "address": "전라북도 익산시 서동로 5 (인화동2가)",
    "phone": "063-843-4444",
    "priceRange": {
      "min": 0,
      "max": 0
    },
    "hasParking": true,
    "coordinates": {
      "lat": 35.9279942,
      "lng": 126.9555714
    },
    "fileUrl": "/BCUser/facilitypic/1000000004/1555488475387.png"
  },
  {
    "id": "1000000709",
    "name": "(주)비케이더블유 좋은강안병원지점",
    "category": "FUNERAL_HOME",
    "address": "부산광역시 수영구 수영로 493 (남천동)",
    "phone": "051-610-9009",
    "priceRange": {
      "min": 0,
      "max": 0
    },
    "hasParking": true,
    "coordinates": {
      "lat": 35.1499639,
      "lng": 129.1104981
    },
    "fileUrl": "/BCUser/facilitypic/1000000709/1560306904961.jpg"
  },
  {
    "id": "7000001089",
    "name": "목포성심장례문화원",
    "category": "FUNERAL_HOME",
    "address": "전라남도 목포시 산계길 4-9 (대양동)",
    "phone": "061-261-4444",
    "priceRange": {
      "min": 0,
      "max": 0
    },
    "hasParking": true,
    "coordinates": {
      "lat": 34.83852,
      "lng": 126.425702
    },
    "fileUrl": "/BCUser/facilitypic/7000001089/1563425591883.jpg"
  },
  {
    "id": "7000001106",
    "name": "정선장례식장",
    "category": "FUNERAL_HOME",
    "address": "강원특별자치도 정선군 정선읍 서동로 1277 (덕송리, 정선장례식장)",
    "phone": "033-562-4444",
    "priceRange": {
      "min": 0,
      "max": 0
    },
    "hasParking": true,
    "coordinates": {
      "lat": 37.4019646,
      "lng": 128.6686866
    },
    "fileUrl": "/BCUser/facilitypic/1465884401182_7000001106_0.jpg"
  },
  {
    "id": "7000002821",
    "name": "혼길장례식장",
    "category": "FUNERAL_HOME",
    "address": "제주특별자치도 제주시 공항서로 131 (도두이동)",
    "phone": "064-744-1245",
    "priceRange": {
      "min": 0,
      "max": 0
    },
    "hasParking": true,
    "coordinates": {
      "lat": null,
      "lng": null
    },
    "fileUrl": "/BCUser/facilitypic/1728535966651.png"
  },
  {
    "id": "7000002652",
    "name": "시흥누리병원장례식장",
    "category": "FUNERAL_HOME",
    "address": "경기도 시흥시 수인로3325번길 5 (신천동)",
    "phone": "031-404-4444",
    "priceRange": {
      "min": 0,
      "max": 0
    },
    "hasParking": true,
    "coordinates": {
      "lat": 37.43844,
      "lng": 126.78902
    },
    "fileUrl": "/BCUser/facilitypic/1696492535346.jpg"
  },
  {
    "id": "7000002578",
    "name": "그린장례문화원주식회사",
    "category": "FUNERAL_HOME",
    "address": "광주광역시 북구 하서로663번길 97 (용전동)",
    "phone": "062-250-4455",
    "priceRange": {
      "min": 0,
      "max": 0
    },
    "hasParking": true,
    "coordinates": {
      "lat": 35.239208,
      "lng": 126.89116
    },
    "fileUrl": "/BCUser/facilitypic/1638935354471.jpg"
  },
  {
    "id": "7000002034",
    "name": "쉴낙원 김포장례식장",
    "category": "FUNERAL_HOME",
    "address": "경기도 김포시 승가로58번길 7 (풍무동, 김포쉴낙원)",
    "phone": "031-449-1009",
    "priceRange": {
      "min": 0,
      "max": 0
    },
    "hasParking": true,
    "coordinates": {
      "lat": 37.606842,
      "lng": 126.715728
    },
    "fileUrl": "/BCUser/facilitypic/1532154141397_7000002034_0.jpg"
  },
  {
    "id": "1000000012",
    "name": "가야장례식장",
    "category": "FUNERAL_HOME",
    "address": "전라남도 광양시 광양읍 인덕로 1183 (구산리)",
    "phone": "061-763-4444",
    "priceRange": {
      "min": 0,
      "max": 0
    },
    "hasParking": true,
    "coordinates": {
      "lat": 34.987677,
      "lng": 127.579301
    },
    "fileUrl": "/BCUser/facilitypic/1000000012/1560405837000.jpg"
  },
  {
    "id": "1000000042",
    "name": "거금장례식장",
    "category": "FUNERAL_HOME",
    "address": "전라남도 고흥군 금산면 거금일주로 2901 (석정리)",
    "phone": "061-844-4444",
    "priceRange": {
      "min": 0,
      "max": 0
    },
    "hasParking": true,
    "coordinates": {
      "lat": 34.475759,
      "lng": 127.154346
    },
    "fileUrl": "/BCUser/facilitypic/1000000042/1564467121955.jpg"
  },
  {
    "id": "1000000675",
    "name": "전곡효사랑병원장례식장",
    "category": "FUNERAL_HOME",
    "address": "경기도 연천군 전곡읍 평화로 525 (전곡리)",
    "phone": "031-832-4444",
    "priceRange": {
      "min": 0,
      "max": 0
    },
    "hasParking": true,
    "coordinates": {
      "lat": 38.017411,
      "lng": 127.069001
    },
    "fileUrl": "/BCUser/facilitypic/1635835466268.jpg"
  },
  {
    "id": "1000000593",
    "name": "옥당장례식장",
    "category": "FUNERAL_HOME",
    "address": "전라남도 영광군 영광읍 천년로 1371-20 (신하리)",
    "phone": "061-352-4401",
    "priceRange": {
      "min": 0,
      "max": 0
    },
    "hasParking": true,
    "coordinates": {
      "lat": 35.269581,
      "lng": 126.494491
    },
    "fileUrl": "/BCUser/facilitypic/1000000593/1576464349671.jpg"
  },
  {
    "id": "1000000822",
    "name": "평화원 장례식장",
    "category": "FUNERAL_HOME",
    "address": "대전광역시 중구 대전천서로 745 (중촌동)",
    "phone": "042-531-4444",
    "priceRange": {
      "min": 0,
      "max": 0
    },
    "hasParking": true,
    "coordinates": {
      "lat": 36.3472913,
      "lng": 127.408501
    },
    "fileUrl": "/BCUser/facilitypic/1000000822/1559112194677.jpg"
  },
  {
    "id": "1000000726",
    "name": "중앙대학교병원장례식장",
    "category": "FUNERAL_HOME",
    "address": "서울특별시 동작구 흑석로 102 (흑석동, 중앙대학교병원)",
    "phone": "02-860-3500",
    "priceRange": {
      "min": 0,
      "max": 0
    },
    "hasParking": true,
    "coordinates": {
      "lat": 37.5069754,
      "lng": 126.9605231
    },
    "fileUrl": "/BCUser/facilitypic/1000000726/1560314534557.jpg"
  },
  {
    "id": "1000000563",
    "name": "영락원전문장례식장",
    "category": "FUNERAL_HOME",
    "address": "경상남도 창원시 마산회원구 봉양로 152 (봉암동)",
    "phone": "055-292-4444",
    "priceRange": {
      "min": 0,
      "max": 0
    },
    "hasParking": true,
    "coordinates": {
      "lat": 35.217662,
      "lng": 128.602962
    },
    "fileUrl": "/BCUser/facilitypic/1000000563/1559110238580.jpg"
  },
  {
    "id": "1000000613",
    "name": "고창우리장례식장",
    "category": "FUNERAL_HOME",
    "address": "전라북도 고창군 고창읍 녹두로 1313-6 (읍내리)",
    "phone": "063-564-3322",
    "priceRange": {
      "min": 0,
      "max": 0
    },
    "hasParking": true,
    "coordinates": {
      "lat": 35.4342496,
      "lng": 126.6900209
    },
    "fileUrl": "/BCUser/facilitypic/1000000613/1563436812304.jpg"
  },
  {
    "id": "1000000531",
    "name": "엠마우스병원 장례식장",
    "category": "FUNERAL_HOME",
    "address": "경상남도 진주시 남강로 25 (평거동)",
    "phone": "055-745-4444",
    "priceRange": {
      "min": 0,
      "max": 0
    },
    "hasParking": true,
    "coordinates": {
      "lat": 35.166208,
      "lng": 128.040842
    },
    "fileUrl": "/BCUser/facilitypic/1000000531/1560316373785.jpg"
  },
  {
    "id": "1000000748",
    "name": "경상북도포항의료원 장례식장",
    "category": "FUNERAL_HOME",
    "address": "경상북도 포항시 북구 용흥로 36 (용흥동, 포항의료원)",
    "phone": "054-245-0444",
    "priceRange": {
      "min": 0,
      "max": 0
    },
    "hasParking": true,
    "coordinates": {
      "lat": 36.035794,
      "lng": 129.354087
    },
    "fileUrl": "/BCUser/facilitypic/1000000748/1761726417840.jpg"
  },
  {
    "id": "1000000568",
    "name": "영암효병원장례식장",
    "category": "FUNERAL_HOME",
    "address": "전라남도 영암군 덕진면 예향로 1764 (덕진리, 효병원)",
    "phone": "061-471-4441",
    "priceRange": {
      "min": 0,
      "max": 0
    },
    "hasParking": true,
    "coordinates": {
      "lat": 34.8218337,
      "lng": 126.6974901
    },
    "fileUrl": "/BCUser/facilitypic/1000000568/1563432727571.jpg"
  },
  {
    "id": "1000000302",
    "name": "보정장례식장",
    "category": "FUNERAL_HOME",
    "address": "경기도 용인시 기흥구 용구대로2469번길 136 (보정동, 보정장례문화센타)",
    "phone": "031-276-4001",
    "priceRange": {
      "min": 0,
      "max": 0
    },
    "hasParking": true,
    "coordinates": {
      "lat": 37.3192311,
      "lng": 127.1059975
    },
    "fileUrl": "/BCUser/facilitypic/1719961424808.jpg"
  },
  {
    "id": "7000000372",
    "name": "남지요양병원장례식장",
    "category": "FUNERAL_HOME",
    "address": "경상남도 창녕군 남지읍 동포로 15 (남지리, 낙천병원)",
    "phone": "055-526-5788",
    "priceRange": {
      "min": 0,
      "max": 0
    },
    "hasParking": true,
    "coordinates": {
      "lat": 35.390722,
      "lng": 128.481214
    },
    "fileUrl": "/BCUser/facilitypic/1327129401816_7000000372_0.jpg"
  },
  {
    "id": "7000002565",
    "name": "교원예움 포항국화원장례식장",
    "category": "FUNERAL_HOME",
    "address": "경상북도 포항시 남구 희망대로 644 (대잠동)",
    "phone": "054-272-4444",
    "priceRange": {
      "min": 0,
      "max": 0
    },
    "hasParking": true,
    "coordinates": {
      "lat": 36.010918,
      "lng": 129.343535
    },
    "fileUrl": "/BCUser/facilitypic/1628575491157.jpg"
  },
  {
    "id": "7000001803",
    "name": "대한불교관음회조계종 백천사 봉안당",
    "category": "FUNERAL_HOME",
    "address": "경상남도 사천시 백천길 326-2 (백천동, 백천사)",
    "phone": "055-834-4010",
    "priceRange": {
      "min": 0,
      "max": 0
    },
    "hasParking": true,
    "coordinates": {
      "lat": 34.995966,
      "lng": 128.092062
    },
    "fileUrl": "/BCUser/facilitypic/1553843757706_7000001803_0.jpg"
  },
  {
    "id": "7000001352",
    "name": "유림장례식장",
    "category": "FUNERAL_HOME",
    "address": "전라북도 정읍시 명덕로 54 (연지동, 유림웨딩홀)",
    "phone": "063-534-4444",
    "priceRange": {
      "min": 0,
      "max": 0
    },
    "hasParking": true,
    "coordinates": {
      "lat": 35.5754249,
      "lng": 126.8455037
    },
    "fileUrl": "/BCUser/facilitypic/1468274083963_7000001352_0.jpg"
  },
  {
    "id": "7000000065",
    "name": "인하대병원장례식장",
    "category": "FUNERAL_HOME",
    "address": "인천광역시 중구 인항로 27 (신흥동3가, 인하대학병원)",
    "phone": "032-890-3180",
    "priceRange": {
      "min": 0,
      "max": 0
    },
    "hasParking": true,
    "coordinates": {
      "lat": 37.458619,
      "lng": 126.6340376
    },
    "fileUrl": "/BCUser/facilitypic/7000000065/1561615740945.jpg"
  },
  {
    "id": "7000001110",
    "name": "한마음병원장례식장",
    "category": "FUNERAL_HOME",
    "address": "경상남도 사천시 향촌4길 127 (향촌동, 한마음병원)",
    "phone": "055-835-2410",
    "priceRange": {
      "min": 0,
      "max": 0
    },
    "hasParking": true,
    "coordinates": {
      "lat": 34.934985,
      "lng": 128.09795
    },
    "fileUrl": "/BCUser/facilitypic/7000001110/1559110980285.png"
  },
  {
    "id": "1000000152",
    "name": "교원예움 김해장례식장",
    "category": "FUNERAL_HOME",
    "address": "경상남도 김해시 삼안로8번길 24 (지내동)",
    "phone": "055-331-4444",
    "priceRange": {
      "min": 0,
      "max": 0
    },
    "hasParking": true,
    "coordinates": {
      "lat": 35.2296839,
      "lng": 128.9204963
    },
    "fileUrl": "/BCUser/facilitypic/1624947915710.JPG"
  },
  {
    "id": "1000000622",
    "name": "울산병원장례식장",
    "category": "FUNERAL_HOME",
    "address": "울산광역시 남구 월평로171번길 19 (신정동)",
    "phone": "052-227-1024",
    "priceRange": {
      "min": 0,
      "max": 0
    },
    "hasParking": true,
    "coordinates": {
      "lat": 35.5466856,
      "lng": 129.3230201
    },
    "fileUrl": "/BCUser/facilitypic/1646212739020.jpg"
  },
  {
    "id": "1000000075",
    "name": "고령전문장례식장",
    "category": "FUNERAL_HOME",
    "address": "경상북도 고령군 쌍림면 대가야로 947 (고곡리)",
    "phone": "054-956-4444",
    "priceRange": {
      "min": 0,
      "max": 0
    },
    "hasParking": true,
    "coordinates": {
      "lat": 35.7075066,
      "lng": 128.2514996
    },
    "fileUrl": "/BCUser/facilitypic/1000000075/1709689790435.PNG"
  },
  {
    "id": "1000000417",
    "name": "성산현대요양병원장례식장",
    "category": "FUNERAL_HOME",
    "address": "부산광역시 동래구 시실로 12,B1층 (명륜동, 현대병원)",
    "phone": "051-552-1024",
    "priceRange": {
      "min": 0,
      "max": 0
    },
    "hasParking": true,
    "coordinates": {
      "lat": 35.217368,
      "lng": 129.0853543
    },
    "fileUrl": "/BCUser/facilitypic/1000000417/1554960273107.jpg"
  },
  {
    "id": "1000000182",
    "name": "뉴타운장례식장",
    "category": "FUNERAL_HOME",
    "address": "전라북도 전주시 완산구 노송광장로 60 (서노송동)",
    "phone": "063-284-4444",
    "priceRange": {
      "min": 0,
      "max": 0
    },
    "hasParking": true,
    "coordinates": {
      "lat": 35.8261472,
      "lng": 127.1453971
    },
    "fileUrl": "/BCUser/facilitypic/1000000182/1555490622138.png"
  },
  {
    "id": "7000000970",
    "name": "삼성장례문화원",
    "category": "FUNERAL_HOME",
    "address": "전라북도 전주시 덕진구 동부대로 937 (호성동2가)",
    "phone": "063-247-1003",
    "priceRange": {
      "min": 0,
      "max": 0
    },
    "hasParking": true,
    "coordinates": {
      "lat": 35.8678779,
      "lng": 127.1443026
    },
    "fileUrl": "/BCUser/facilitypic/1468633518389_7000000970_0.JPG"
  },
  {
    "id": "7000000889",
    "name": "용인평온의숲 장례식장",
    "category": "FUNERAL_HOME",
    "address": "경기도 용인시 처인구 이동면 평온의숲로 77 (어비리, 용인평온의숲)",
    "phone": "031-329-5959",
    "priceRange": {
      "min": 0,
      "max": 0
    },
    "hasParking": true,
    "coordinates": {
      "lat": 37.118711,
      "lng": 127.227251
    },
    "fileUrl": "/BCUser/facilitypic/7000000889/1554258971857.jpg"
  },
  {
    "id": "7000002482",
    "name": "청주탑요양병원장례식장",
    "category": "FUNERAL_HOME",
    "address": "충청북도 청주시 서원구 궁뜰로 16(미평동)",
    "phone": "043-296-9696",
    "priceRange": {
      "min": 0,
      "max": 0
    },
    "hasParking": true,
    "coordinates": {
      "lat": 36.600796,
      "lng": 127.478633
    },
    "fileUrl": "/BCUser/facilitypic/1606193985255_7000002482_0.jpg"
  },
  {
    "id": "7000000695",
    "name": "한사랑요양병원장례식장",
    "category": "FUNERAL_HOME",
    "address": "경기도 파주시 파주읍 통일로 1568 (봉서리)",
    "phone": "031-953-7900",
    "priceRange": {
      "min": 0,
      "max": 0
    },
    "hasParking": true,
    "coordinates": {
      "lat": 37.8479298,
      "lng": 126.7907765
    },
    "fileUrl": "/BCUser/facilitypic/7000000695/1564473914385.jpg"
  },
  {
    "id": "1000000482",
    "name": "신천제일병원장례식장",
    "category": "FUNERAL_HOME",
    "address": "경기도 시흥시 호현로10번길 7-1 (신천동)",
    "phone": "031-318-9444",
    "priceRange": {
      "min": 0,
      "max": 0
    },
    "hasParking": true,
    "coordinates": {
      "lat": 37.441394,
      "lng": 126.7843347
    },
    "fileUrl": "/BCUser/facilitypic/1329204283419_1000000482_0.13.10.png"
  },
  {
    "id": "1000000839",
    "name": "천안하늘공원장례식장",
    "category": "FUNERAL_HOME",
    "address": "충청남도 천안시 동남구 만남로 114 (신부동)",
    "phone": "041-553-8000",
    "priceRange": {
      "min": 0,
      "max": 0
    },
    "hasParking": true,
    "coordinates": {
      "lat": 36.8219831,
      "lng": 127.1636222
    },
    "fileUrl": "/BCUser/facilitypic/1503022001436_1000000839_0.jpg"
  },
  {
    "id": "1000000796",
    "name": "충남대학교병원장례식장",
    "category": "FUNERAL_HOME",
    "address": "대전광역시 중구 문화로 282 (대사동, 충남대학교병원)",
    "phone": "042-280-8181",
    "priceRange": {
      "min": 0,
      "max": 0
    },
    "hasParking": true,
    "coordinates": {
      "lat": 36.315894,
      "lng": 127.417026
    },
    "fileUrl": "/BCUser/facilitypic/1000000796/1559112398578.jpg"
  },
  {
    "id": "1000000518",
    "name": "양구군장례식장",
    "category": "FUNERAL_HOME",
    "address": "강원도 양구군 양구읍 금강산로 518-25 (하리)",
    "phone": "033-480-2576",
    "priceRange": {
      "min": 0,
      "max": 0
    },
    "hasParking": false,
    "coordinates": {
      "lat": 38.1230992,
      "lng": 127.998774
    },
    "fileUrl": "/BCUser/facilitypic/1000000518/1554267884393.jpg"
  },
  {
    "id": "1000000329",
    "name": "분당서울대학교병원 장례식장",
    "category": "FUNERAL_HOME",
    "address": "경기도 성남시 분당구 구미로173번길 82 (구미동, 분당서울대병원)",
    "phone": "031-787-1500",
    "priceRange": {
      "min": 0,
      "max": 0
    },
    "hasParking": true,
    "coordinates": {
      "lat": 37.34787,
      "lng": 127.12591
    },
    "fileUrl": "/BCUser/facilitypic/1000000329/1554966457654.jpg"
  },
  {
    "id": "1000000666",
    "name": "산림조합 장성장례식장",
    "category": "FUNERAL_HOME",
    "address": "전라남도 장성군 장성읍 역전로 155 (기산리)",
    "phone": "061-394-0444",
    "priceRange": {
      "min": 0,
      "max": 0
    },
    "hasParking": true,
    "coordinates": {
      "lat": 35.306031,
      "lng": 126.781762
    },
    "fileUrl": "/BCUser/facilitypic/1000000666/1563431697241.jpg"
  },
  {
    "id": "1000000384",
    "name": "서울특별시보라매병원장례식장",
    "category": "FUNERAL_HOME",
    "address": "서울특별시 동작구 보라매로5길 20 (신대방동, 서울특별시보라매병원)",
    "phone": "02-836-6900",
    "priceRange": {
      "min": 0,
      "max": 0
    },
    "hasParking": true,
    "coordinates": {
      "lat": 37.49385,
      "lng": 126.92406
    },
    "fileUrl": "/BCUser/facilitypic/1000000384/1554268934055.jpg"
  },
  {
    "id": "7000000810",
    "name": "이담장례식장",
    "category": "FUNERAL_HOME",
    "address": "경기도 동두천시 삼육사로 747, 이담장례식장 (상패동, 아시엘요양병원)",
    "phone": "031-866-7300",
    "priceRange": {
      "min": 0,
      "max": 0
    },
    "hasParking": true,
    "coordinates": {
      "lat": 37.908225,
      "lng": 127.0358164
    },
    "fileUrl": "/BCUser/facilitypic/7000000810/1556501216463.jpg"
  },
  {
    "id": "7000001025",
    "name": "(주)스카이장례식장",
    "category": "FUNERAL_HOME",
    "address": "광주광역시 광산구 북문대로 603 (수완동)",
    "phone": "062-951-1004",
    "priceRange": {
      "min": 0,
      "max": 0
    },
    "hasParking": true,
    "coordinates": {
      "lat": 35.204788,
      "lng": 126.834213
    },
    "fileUrl": "/BCUser/facilitypic/7000001025/1559105146210.jpg"
  },
  {
    "id": "7000000492",
    "name": "남양주한양병원장례식장",
    "category": "FUNERAL_HOME",
    "address": "경기도 남양주시 오남읍 양지로 47-55 (오남리, 남양한양병원)",
    "phone": "031-529-4440",
    "priceRange": {
      "min": 0,
      "max": 0
    },
    "hasParking": true,
    "coordinates": {
      "lat": 37.6823506,
      "lng": 127.20422
    },
    "fileUrl": "/BCUser/facilitypic/7000000492/1563427299378.jpg"
  },
  {
    "id": "7000000487",
    "name": "그랜드부민장례식장",
    "category": "FUNERAL_HOME",
    "address": "제주특별자치도 제주시 연북로 378 (도남동)",
    "phone": "064-742-5000",
    "priceRange": {
      "min": 0,
      "max": 0
    },
    "hasParking": true,
    "coordinates": {
      "lat": 33.4803205,
      "lng": 126.5219174
    },
    "fileUrl": "/BCUser/facilitypic/1710905854693.jpg"
  },
  {
    "id": "7000002577",
    "name": "양산장례식장",
    "category": "FUNERAL_HOME",
    "address": "경상남도 양산시 동면 남양산길 73, 양산장례식장 ",
    "phone": "055-366-4440",
    "priceRange": {
      "min": 0,
      "max": 0
    },
    "hasParking": true,
    "coordinates": {
      "lat": 35.325422,
      "lng": 129.027358
    },
    "fileUrl": "/BCUser/facilitypic/1721113221974.jpg"
  },
  {
    "id": "7000002169",
    "name": "예지장례식장",
    "category": "FUNERAL_HOME",
    "address": "인천광역시 중구 개항로 82.2층예지장례식장 (경동, 예지요양병원)",
    "phone": "032-766-6444",
    "priceRange": {
      "min": 0,
      "max": 0
    },
    "hasParking": true,
    "coordinates": {
      "lat": 37.471679,
      "lng": 126.631812
    },
    "fileUrl": "/BCUser/facilitypic/7000002169/1561625412563.jpg"
  },
  {
    "id": "7000001628",
    "name": "천안삼거리국화원장례식장",
    "category": "FUNERAL_HOME",
    "address": "충청남도 천안시 동남구 충절로 575 (삼룡동, 천안삼거리장례식장)",
    "phone": "041-562-4444",
    "priceRange": {
      "min": 0,
      "max": 0
    },
    "hasParking": true,
    "coordinates": {
      "lat": 36.7735508,
      "lng": 127.1816035
    },
    "fileUrl": "/BCUser/facilitypic/1490078429351_7000001628_0.jpg"
  },
  {
    "id": "7000002204",
    "name": "비에스종합병원장례식장",
    "category": "FUNERAL_HOME",
    "address": "인천광역시 강화군 강화읍 충렬사로 31, 비에스종합병원 별관 (남산리)",
    "phone": "032-216-4444",
    "priceRange": {
      "min": 0,
      "max": 0
    },
    "hasParking": true,
    "coordinates": {
      "lat": 37.735811,
      "lng": 126.485837
    },
    "fileUrl": "/BCUser/facilitypic/7000002204/1554686216792.png"
  },
  {
    "id": "7000002175",
    "name": "중앙장례식장",
    "category": "FUNERAL_HOME",
    "address": "충청남도 천안시 동남구 대흥로 170 (사직동)",
    "phone": "041-558-4444",
    "priceRange": {
      "min": 0,
      "max": 0
    },
    "hasParking": true,
    "coordinates": {
      "lat": 36.803112,
      "lng": 127.146383
    },
    "fileUrl": "/BCUser/facilitypic/7000002175/1554266383831.jpg"
  },
  {
    "id": "1000000878",
    "name": "함양장례식장",
    "category": "FUNERAL_HOME",
    "address": "경상남도 함양군 함양읍 고운로 284 (백천리)",
    "phone": "055-964-2000",
    "priceRange": {
      "min": 0,
      "max": 0
    },
    "hasParking": true,
    "coordinates": {
      "lat": 35.523749,
      "lng": 127.751481
    },
    "fileUrl": "/BCUser/facilitypic/1000000878/1564473794858.jpg"
  },
  {
    "id": "7000002232",
    "name": "부산대학교병원장례식장",
    "category": "FUNERAL_HOME",
    "address": "부산광역시 서구 구덕로 179 (아미동1가, 부산대학병원)",
    "phone": "051-240-7161",
    "priceRange": {
      "min": 0,
      "max": 0
    },
    "hasParking": true,
    "coordinates": {
      "lat": 35.101147,
      "lng": 129.018868
    },
    "fileUrl": "/BCUser/facilitypic/7000002232/1563510370506.jpg"
  },
  {
    "id": "7000000390",
    "name": "삼성장례식장",
    "category": "FUNERAL_HOME",
    "address": "전라남도 완도군 완도읍 농공단지1길 24 (가용리)",
    "phone": "061-555-4455",
    "priceRange": {
      "min": 0,
      "max": 0
    },
    "hasParking": true,
    "coordinates": {
      "lat": 34.334493,
      "lng": 126.731218
    },
    "fileUrl": "/BCUser/facilitypic/7000000390/1563431408181.jpg"
  },
  {
    "id": "1000000090",
    "name": "공주의료원장례식장",
    "category": "FUNERAL_HOME",
    "address": "충청남도 공주시 무령로 77 (웅진동)",
    "phone": "041-962-1444",
    "priceRange": {
      "min": 0,
      "max": 0
    },
    "hasParking": true,
    "coordinates": {
      "lat": 36.459141,
      "lng": 127.109573
    },
    "fileUrl": "/BCUser/facilitypic/1000000090/1564384997520.jpg"
  },
  {
    "id": "1000000686",
    "name": "여수제일병원장례식장",
    "category": "FUNERAL_HOME",
    "address": "전라남도 여수시 학동1길 24 (학동)",
    "phone": "061-692-4444",
    "priceRange": {
      "min": 0,
      "max": 0
    },
    "hasParking": true,
    "coordinates": {
      "lat": 34.7657108,
      "lng": 127.6642638
    },
    "fileUrl": "/BCUser/facilitypic/1000000686/1563427224931.jpg"
  },
  {
    "id": "1000000047",
    "name": "건양대학교병원장례식장",
    "category": "FUNERAL_HOME",
    "address": "대전광역시 서구 관저동로 158 (관저동)",
    "phone": "042-600-6666",
    "priceRange": {
      "min": 0,
      "max": 0
    },
    "hasParking": true,
    "coordinates": {
      "lat": 36.307796,
      "lng": 127.342648
    },
    "fileUrl": "/BCUser/facilitypic/1000000047/1559106756866.jpg"
  },
  {
    "id": "1000000655",
    "name": "인천광역시의료원 장례식장",
    "category": "FUNERAL_HOME",
    "address": "인천광역시 동구 방축로 217 (송림동, 인천광역시의료원)",
    "phone": "032-580-6662",
    "priceRange": {
      "min": 0,
      "max": 0
    },
    "hasParking": true,
    "coordinates": {
      "lat": 37.47863,
      "lng": 126.66862
    },
    "fileUrl": "/BCUser/facilitypic/1692843046335.jpg"
  },
  {
    "id": "1000000491",
    "name": "신천연합병원장례식장",
    "category": "FUNERAL_HOME",
    "address": "경기도 시흥시 복지로 57 (대야동)",
    "phone": "031-310-6440",
    "priceRange": {
      "min": 0,
      "max": 0
    },
    "hasParking": true,
    "coordinates": {
      "lat": 37.4445521,
      "lng": 126.789516
    },
    "fileUrl": "/BCUser/facilitypic/1000000491/1559113688712.jpg"
  },
  {
    "id": "1000000005",
    "name": "(유)한솔장례식장",
    "category": "FUNERAL_HOME",
    "address": "전라북도 익산시 무왕로 1471-22 (팔봉동)",
    "phone": "063-838-7444",
    "priceRange": {
      "min": 0,
      "max": 0
    },
    "hasParking": true,
    "coordinates": {
      "lat": 35.970578,
      "lng": 127.018283
    },
    "fileUrl": "/BCUser/facilitypic/1000000005/1474965946317.jpg"
  },
  {
    "id": "1000000629",
    "name": "원병원장례식장",
    "category": "FUNERAL_HOME",
    "address": "경기도 남양주시 화도읍 경춘로 1943-16 (창현리, 원병원)",
    "phone": "031-511-9944",
    "priceRange": {
      "min": 0,
      "max": 0
    },
    "hasParking": true,
    "coordinates": {
      "lat": 37.6518762,
      "lng": 127.3043556
    },
    "fileUrl": "/BCUser/facilitypic/1000000629/1556500468205.jpg"
  },
  {
    "id": "7000000862",
    "name": "회천농협장례문화원",
    "category": "FUNERAL_HOME",
    "address": "경기도 양주시 평화로 1861 (회정동)",
    "phone": "031-864-4444",
    "priceRange": {
      "min": 0,
      "max": 0
    },
    "hasParking": true,
    "coordinates": {
      "lat": 37.855102,
      "lng": 127.05297
    },
    "fileUrl": "/BCUser/facilitypic/1395744847854_7000000862_0.JPG"
  },
  {
    "id": "7000001354",
    "name": "첨단요양병원장례식장",
    "category": "FUNERAL_HOME",
    "address": "대구광역시 북구 대현로 19 (대현동,대현첨단병원)",
    "phone": "053-669-1004",
    "priceRange": {
      "min": 0,
      "max": 0
    },
    "hasParking": true,
    "coordinates": {
      "lat": 35.8863699,
      "lng": 128.6028731
    },
    "fileUrl": "/BCUser/facilitypic/1455587095170_7000001354_0.png"
  },
  {
    "id": "7000001599",
    "name": "고령대가야장례식장",
    "category": "FUNERAL_HOME",
    "address": "경상북도 고령군 대가야읍 일량로 83 (고아리)",
    "phone": "054-955-1667",
    "priceRange": {
      "min": 0,
      "max": 0
    },
    "hasParking": true,
    "coordinates": {
      "lat": 35.721866,
      "lng": 128.272699
    },
    "fileUrl": "/BCUser/facilitypic/7000001599/1560327974111.jpg"
  },
  {
    "id": "7000001584",
    "name": "(재)성산공원 추모관",
    "category": "FUNERAL_HOME",
    "address": "전라북도 군산시 성산면 왕골로 239-29 (대명리, 성산공원)",
    "phone": "063-453-5510",
    "priceRange": {
      "min": 0,
      "max": 0
    },
    "hasParking": true,
    "coordinates": {
      "lat": 36.0024529,
      "lng": 126.8174483
    },
    "fileUrl": "/BCUser/facilitypic/7000001584/1707809960087.PNG"
  },
  {
    "id": "7000000111",
    "name": "대구보훈병원장례식장",
    "category": "FUNERAL_HOME",
    "address": "대구광역시 달서구 월곡로 60 (도원동 748번지)",
    "phone": "053-625-4466",
    "priceRange": {
      "min": 0,
      "max": 0
    },
    "hasParking": true,
    "coordinates": {
      "lat": 35.8028989,
      "lng": 128.5517754
    },
    "fileUrl": "/BCUser/facilitypic/1754638593065.jpg"
  },
  {
    "id": "7000000782",
    "name": "보람김해장례식장",
    "category": "FUNERAL_HOME",
    "address": "경상남도 김해시 분성로 98 (외동)",
    "phone": "055-322-4442",
    "priceRange": {
      "min": 0,
      "max": 0
    },
    "hasParking": true,
    "coordinates": {
      "lat": 35.230832,
      "lng": 128.857738
    },
    "fileUrl": "/BCUser/facilitypic/7000000782/1563510127170.jpg"
  },
  {
    "id": "1000000849",
    "name": "한국병원장례식장",
    "category": "FUNERAL_HOME",
    "address": "대전광역시 동구 동서대로 1672 (성남동, 대전한국병원)",
    "phone": "042-638-4440",
    "priceRange": {
      "min": 0,
      "max": 0
    },
    "hasParking": true,
    "coordinates": {
      "lat": 36.34832,
      "lng": 127.43575
    },
    "fileUrl": "/BCUser/facilitypic/1000000849/1555913542341.jpg"
  },
  {
    "id": "1000000451",
    "name": "송산장례식장",
    "category": "FUNERAL_HOME",
    "address": "경기도 이천시 장호원읍 서동대로 8579 (송산리)",
    "phone": "031-641-4440",
    "priceRange": {
      "min": 0,
      "max": 0
    },
    "hasParking": true,
    "coordinates": {
      "lat": 37.1139541,
      "lng": 127.5888625
    },
    "fileUrl": "/BCUser/facilitypic/1446430213039_1000000451_0.gif"
  },
  {
    "id": "1000000084",
    "name": "유한회사보람",
    "category": "FUNERAL_HOME",
    "address": "전라남도 고흥군 고흥읍 고흥로 1935 (남계리)",
    "phone": "061-830-3300",
    "priceRange": {
      "min": 0,
      "max": 0
    },
    "hasParking": true,
    "coordinates": {
      "lat": 34.6210043,
      "lng": 127.2939397
    },
    "fileUrl": "/BCUser/facilitypic/1000000084/1555305898193.jpg"
  },
  {
    "id": "1000000296",
    "name": "보성아산병원장례식장",
    "category": "FUNERAL_HOME",
    "address": "전라남도 보성군 미력면 가평길 36-17 (초당리)",
    "phone": "061-853-4004",
    "priceRange": {
      "min": 0,
      "max": 0
    },
    "hasParking": true,
    "coordinates": {
      "lat": 34.776439,
      "lng": 127.103906
    },
    "fileUrl": "/BCUser/facilitypic/1000000296/1564463358387.jpg"
  },
  {
    "id": "1000000406",
    "name": "성남중앙병원장례식장",
    "category": "FUNERAL_HOME",
    "address": "경기도 성남시 중원구 산성대로476번길 12 (금광동)",
    "phone": "031-799-5200",
    "priceRange": {
      "min": 0,
      "max": 0
    },
    "hasParking": true,
    "coordinates": {
      "lat": 37.4527005,
      "lng": 127.1620743
    },
    "fileUrl": "/BCUser/facilitypic/1000000406/1563427472464.jpg"
  },
  {
    "id": "7000000355",
    "name": "교하장례식장",
    "category": "FUNERAL_HOME",
    "address": "경기도 파주시 하지석길 45, B1층 (교하동)",
    "phone": "031-944-4449",
    "priceRange": {
      "min": 0,
      "max": 0
    },
    "hasParking": true,
    "coordinates": {
      "lat": 37.7547005,
      "lng": 126.7422535
    },
    "fileUrl": "/BCUser/facilitypic/7000000355/1560307246089.jpg"
  },
  {
    "id": "7000000794",
    "name": "중앙장례식장",
    "category": "FUNERAL_HOME",
    "address": "경기도 평택시 경기대로 931 (장당동)",
    "phone": "031-666-3400",
    "priceRange": {
      "min": 0,
      "max": 0
    },
    "hasParking": true,
    "coordinates": {
      "lat": 37.0324937,
      "lng": 127.0693031
    },
    "fileUrl": "/BCUser/facilitypic/7000000794/1560307654036.jpg"
  },
  {
    "id": "7000000873",
    "name": "문경장례식장",
    "category": "FUNERAL_HOME",
    "address": "경상북도 문경시 산양면 서당마길 7-5 (반곡리)",
    "phone": "054-555-7000",
    "priceRange": {
      "min": 0,
      "max": 0
    },
    "hasParking": true,
    "coordinates": {
      "lat": 36.612007,
      "lng": 128.224414
    },
    "fileUrl": "/BCUser/facilitypic/7000000873/1563952854020.png"
  },
  {
    "id": "7000001455",
    "name": "영덕효요양병원장례식장",
    "category": "FUNERAL_HOME",
    "address": "경상북도 영덕군 영덕읍 영덕로 72-12 (남산리)",
    "phone": "054-732-4444",
    "priceRange": {
      "min": 0,
      "max": 0
    },
    "hasParking": true,
    "coordinates": {
      "lat": 36.401016,
      "lng": 129.3733099
    },
    "fileUrl": "/BCUser/facilitypic/7000001455/1564373090514.jpg"
  },
  {
    "id": "7000001995",
    "name": "세민병원장례식장",
    "category": "FUNERAL_HOME",
    "address": "울산광역시 중구 학성로 184,B1층 (학성동, 울산세민병원)",
    "phone": "052-293-4445",
    "priceRange": {
      "min": 0,
      "max": 0
    },
    "hasParking": true,
    "coordinates": {
      "lat": 35.556629,
      "lng": 129.331012
    },
    "fileUrl": "/BCUser/facilitypic/7000001995/1555901205979.jpg"
  },
  {
    "id": "7000002072",
    "name": "인천기독병원장례식장",
    "category": "FUNERAL_HOME",
    "address": "인천광역시 중구 답동로30번길 10 (율목동, 인천기독병원)",
    "phone": "032-765-4440",
    "priceRange": {
      "min": 0,
      "max": 0
    },
    "hasParking": true,
    "coordinates": {
      "lat": 37.471273,
      "lng": 126.632106
    },
    "fileUrl": "/BCUser/facilitypic/1532843472944_7000002072_0.jpg"
  },
  {
    "id": "7000002667",
    "name": "황금요양병원 장례식장",
    "category": "FUNERAL_HOME",
    "address": "대구광역시 수성구 수성로 216.2층 (2층) ",
    "phone": "053-745-4444",
    "priceRange": {
      "min": 0,
      "max": 0
    },
    "hasParking": true,
    "coordinates": {
      "lat": 35.844744,
      "lng": 128.613136
    },
    "fileUrl": "/BCUser/facilitypic/1677065375599.jpg"
  },
  {
    "id": "3000000085",
    "name": "에덴추모공원",
    "category": "FUNERAL_HOME",
    "address": "경기도 남양주시 화도읍 수레로964번길 113-13 (차산리)",
    "phone": "031-572-0001",
    "priceRange": {
      "min": 0,
      "max": 0
    },
    "hasParking": true,
    "coordinates": {
      "lat": 37.6237834,
      "lng": 127.2892255
    },
    "fileUrl": "/BCUser/facilitypic/1600221699907_3000000085_0.JPG"
  },
  {
    "id": "1000000019",
    "name": "강남병원장례식장",
    "category": "FUNERAL_HOME",
    "address": "대구광역시 동구 동촌로 207 (방촌동)",
    "phone": "053-986-0044",
    "priceRange": {
      "min": 0,
      "max": 0
    },
    "hasParking": true,
    "coordinates": {
      "lat": 35.8830688,
      "lng": 128.6631756
    },
    "fileUrl": "/BCUser/facilitypic/1000000019/1563424593233.jpg"
  },
  {
    "id": "1000000527",
    "name": "언양병원장례식장",
    "category": "FUNERAL_HOME",
    "address": "울산광역시 울주군 삼남면 반구대로 785 (교동리)",
    "phone": "052-264-9787",
    "priceRange": {
      "min": 0,
      "max": 0
    },
    "hasParking": true,
    "coordinates": {
      "lat": 35.5603639,
      "lng": 129.1255222
    },
    "fileUrl": "/BCUser/facilitypic/1000000527/1555907705891.jpg"
  },
  {
    "id": "1000000564",
    "name": "강진영락장례식장",
    "category": "FUNERAL_HOME",
    "address": "전라남도 강진군 강진읍 보은로 200 (동성리)",
    "phone": "061-433-3950",
    "priceRange": {
      "min": 0,
      "max": 0
    },
    "hasParking": true,
    "coordinates": {
      "lat": 34.640798,
      "lng": 126.7792355
    },
    "fileUrl": "/BCUser/facilitypic/1000000564/1554959963938.jpg"
  },
  {
    "id": "1000000483",
    "name": "시흥우리장례식장",
    "category": "FUNERAL_HOME",
    "address": "경기도 시흥시 평안상가5길 19 (정왕동)",
    "phone": "031-433-5444",
    "priceRange": {
      "min": 0,
      "max": 0
    },
    "hasParking": true,
    "coordinates": {
      "lat": 37.3357713,
      "lng": 126.7479436
    },
    "fileUrl": "/BCUser/facilitypic/1000000483/1559113608059.jpg"
  },
  {
    "id": "1000000330",
    "name": "주식회사 분당제생병원장례식장",
    "category": "FUNERAL_HOME",
    "address": "경기도 성남시 분당구 서현로180번길 20 (서현동, 분당제생병원)",
    "phone": "031-708-4444",
    "priceRange": {
      "min": 0,
      "max": 0
    },
    "hasParking": true,
    "coordinates": {
      "lat": 37.3881717,
      "lng": 127.1217664
    },
    "fileUrl": "/BCUser/facilitypic/1000000330/1554967010601.jpg"
  },
  {
    "id": "1000000149",
    "name": "김천시민장례식장",
    "category": "FUNERAL_HOME",
    "address": "경상북도 김천시 남면 초곡길 167 (초곡리)",
    "phone": "054-435-4321",
    "priceRange": {
      "min": 0,
      "max": 0
    },
    "hasParking": true,
    "coordinates": {
      "lat": 36.134834,
      "lng": 128.1817453
    },
    "fileUrl": "/BCUser/facilitypic/1000000149/1561094695486.png"
  },
  {
    "id": "1000000625",
    "name": "울산전문장례식장",
    "category": "FUNERAL_HOME",
    "address": "울산광역시 북구 산업로 1023 (연암동)",
    "phone": "052-242-4444",
    "priceRange": {
      "min": 0,
      "max": 0
    },
    "hasParking": true,
    "coordinates": {
      "lat": 35.5845865,
      "lng": 129.358865
    },
    "fileUrl": "/BCUser/facilitypic/1732525720532.jpg"
  },
  {
    "id": "7000001096",
    "name": "수성연도실",
    "category": "FUNERAL_HOME",
    "address": "대구광역시 수성구 수성로 347 (수성동1가, 수성성당)",
    "phone": "053-751-5961",
    "priceRange": {
      "min": 0,
      "max": 0
    },
    "hasParking": true,
    "coordinates": {
      "lat": 35.8566596,
      "lng": 128.6132603
    },
    "fileUrl": "/BCUser/facilitypic/7000001096/1554967938480.jpg"
  },
  {
    "id": "7000001133",
    "name": "갑을녹산병원장례식장",
    "category": "FUNERAL_HOME",
    "address": "부산광역시 강서구 녹산산단321로 24-8 (송정동, 갑을녹산병원)",
    "phone": "051-972-1024",
    "priceRange": {
      "min": 0,
      "max": 0
    },
    "hasParking": true,
    "coordinates": {
      "lat": 35.0906026,
      "lng": 128.8533057
    },
    "fileUrl": "/BCUser/facilitypic/1506331990844_7000001133_0.jpg"
  },
  {
    "id": "7000002605",
    "name": "목포현대병원장례식장",
    "category": "FUNERAL_HOME",
    "address": "전라남도 목포시 용당로 322-1 (용해동)",
    "phone": "061-270-9708",
    "priceRange": {
      "min": 0,
      "max": 0
    },
    "hasParking": true,
    "coordinates": {
      "lat": 34.815662,
      "lng": 126.40141
    },
    "fileUrl": "/BCUser/facilitypic/7000002605/1709689860435.PNG"
  },
  {
    "id": "7000001934",
    "name": "한림병원장례식장",
    "category": "FUNERAL_HOME",
    "address": "인천광역시 계양구 장제로 722,한림병원 2,3관 지하2층 (작전동)",
    "phone": "032-543-2444",
    "priceRange": {
      "min": 0,
      "max": 0
    },
    "hasParking": true,
    "coordinates": {
      "lat": 37.5322598,
      "lng": 126.7343382
    },
    "fileUrl": "/BCUser/facilitypic/1503476305747_7000001934_0.jpg"
  },
  {
    "id": "7000002048",
    "name": "김화장례문화원",
    "category": "FUNERAL_HOME",
    "address": "강원특별자치도 철원군 서면 와수로 13 (와수리)",
    "phone": "033-458-0010",
    "priceRange": {
      "min": 0,
      "max": 0
    },
    "hasParking": true,
    "coordinates": {
      "lat": 38.226451,
      "lng": 127.429134
    },
    "fileUrl": "/BCUser/facilitypic/7000002048/1555316294570.jpg"
  },
  {
    "id": "7000002146",
    "name": "무안초당병원장례식장",
    "category": "FUNERAL_HOME",
    "address": "전라남도 무안군 무안읍 성남1길 97-2 (성남리, 동남호텔예식장)",
    "phone": "061-454-4040",
    "priceRange": {
      "min": 0,
      "max": 0
    },
    "hasParking": true,
    "coordinates": {
      "lat": 34.98386,
      "lng": 126.470479
    },
    "fileUrl": "/BCUser/facilitypic/7000002146/1563426841737.jpg"
  },
  {
    "id": "1000000665",
    "name": "장성병원장례식장",
    "category": "FUNERAL_HOME",
    "address": "전라남도 장성군 장성읍 역전로 171 (영천리)",
    "phone": "061-393-4444",
    "priceRange": {
      "min": 0,
      "max": 0
    },
    "hasParking": true,
    "coordinates": {
      "lat": 35.3058474,
      "lng": 126.7836589
    },
    "fileUrl": "/BCUser/facilitypic/1000000665/1563431618584.jpg"
  },
  {
    "id": "1000000424",
    "name": "함양성심병원장례식장",
    "category": "FUNERAL_HOME",
    "address": "경상남도 함양군 함양읍 용평1길 5 (용평리)",
    "phone": "055-962-9999",
    "priceRange": {
      "min": 0,
      "max": 0
    },
    "hasParking": true,
    "coordinates": {
      "lat": 35.520279,
      "lng": 127.7293436
    },
    "fileUrl": "/BCUser/facilitypic/1570518284656_1000000424_0.jpg"
  },
  {
    "id": "1000000596",
    "name": "온고을장례식장",
    "category": "FUNERAL_HOME",
    "address": "전라북도 전주시 덕진구 온고을로 438-2 (만성동)",
    "phone": "063-211-5000",
    "priceRange": {
      "min": 0,
      "max": 0
    },
    "hasParking": true,
    "coordinates": {
      "lat": 35.8515756,
      "lng": 127.0814939
    },
    "fileUrl": "/BCUser/facilitypic/1000000596/1563510871567.jpg"
  },
  {
    "id": "1000000530",
    "name": "엠마오사랑병원장례식장",
    "category": "FUNERAL_HOME",
    "address": "전라북도 전주시 완산구 서원로 402-35 (중화산동1가)",
    "phone": "063-285-4411",
    "priceRange": {
      "min": 0,
      "max": 0
    },
    "hasParking": true,
    "coordinates": {
      "lat": 35.812621,
      "lng": 127.137589
    },
    "fileUrl": "/BCUser/facilitypic/1000000530/1555490356098.png"
  },
  {
    "id": "1000000394",
    "name": "석곡농협장례식장",
    "category": "FUNERAL_HOME",
    "address": "전라남도 곡성군 석곡면 주석로 657-5 (석곡리)",
    "phone": "061-362-0088",
    "priceRange": {
      "min": 0,
      "max": 0
    },
    "hasParking": true,
    "coordinates": {
      "lat": 35.1296537,
      "lng": 127.2511776
    },
    "fileUrl": "/BCUser/facilitypic/1000000394/1563517109630.jpg"
  },
  {
    "id": "1000000101",
    "name": "괴산장례식장",
    "category": "FUNERAL_HOME",
    "address": "충청북도 괴산군 괴산읍 읍내로 35-4 (대사리)",
    "phone": "043-832-4444",
    "priceRange": {
      "min": 0,
      "max": 0
    },
    "hasParking": true,
    "coordinates": {
      "lat": 36.800752,
      "lng": 127.774023
    },
    "fileUrl": "/BCUser/facilitypic/1000000101/1555315893707.jpg"
  },
  {
    "id": "7000000082",
    "name": "금강쉴낙원장례식장",
    "category": "FUNERAL_HOME",
    "address": "충청남도 공주시 우성면 약천길 19 (도천리)",
    "phone": "041-853-4446",
    "priceRange": {
      "min": 0,
      "max": 0
    },
    "hasParking": true,
    "coordinates": {
      "lat": 36.4790677,
      "lng": 127.096507
    },
    "fileUrl": "/BCUser/facilitypic/1457597772344_7000000082_0.JPG"
  },
  {
    "id": "7000000097",
    "name": "온종합병원 장례식장",
    "category": "FUNERAL_HOME",
    "address": "부산광역시 부산진구 가야대로 721 (당감동)",
    "phone": "051-607-0111",
    "priceRange": {
      "min": 0,
      "max": 0
    },
    "hasParking": true,
    "coordinates": {
      "lat": 35.1578057,
      "lng": 129.0499681
    },
    "fileUrl": "/BCUser/facilitypic/7000000097/1556524841586.jpg"
  },
  {
    "id": "7000000161",
    "name": "삼육병원장례식장",
    "category": "FUNERAL_HOME",
    "address": "경기도 광주시 초월읍 경수길 25 (지월리)",
    "phone": "031-760-3644",
    "priceRange": {
      "min": 0,
      "max": 0
    },
    "hasParking": true,
    "coordinates": {
      "lat": 37.418855,
      "lng": 127.287355
    },
    "fileUrl": "/BCUser/facilitypic/1336617485765_7000000161_0.25.19.jpg"
  },
  {
    "id": "7000002958",
    "name": "수원덕산병원장례식장",
    "category": "FUNERAL_HOME",
    "address": "경기도 수원시 권선구 서부로 1670번길 9 B2층 장례식장 (고색동)",
    "phone": "031-686-2900",
    "priceRange": {
      "min": 0,
      "max": 0
    },
    "hasParking": true,
    "coordinates": {
      "lat": null,
      "lng": null
    },
    "fileUrl": "/BCUser/facilitypic/7000002958/1764814002324.jpg"
  }
]