[
  {
    "id": "1000000069",
    "name": "고려대구로병원장례식장",
    "category": "FUNERAL_HOME",
    "address": "서울특별시 구로구 구로동로 148 (구로동, 고려대부속구로병원)",
    "phone": "02-857-0444",
    "priceRange": {
      "min": 0,
      "max": 0
    },
    "hasParking": true,
    "coordinates": {
      "lat": 37.492751,
      "lng": 126.885373
    },
    "fileUrl": "/BCUser/facilitypic/1000000069/1554194027882.jpg"
  },
  {
    "id": "1000000385",
    "name": "서울아산병원 장례식장",
    "category": "FUNERAL_HOME",
    "address": "서울특별시 송파구 올림픽로43길 88 (풍납동, 서울아산병원)",
    "phone": "02-3010-2000",
    "priceRange": {
      "min": 0,
      "max": 0
    },
    "hasParking": true,
    "coordinates": {
      "lat": 37.5254548,
      "lng": 127.1084185
    },
    "fileUrl": "/BCUser/facilitypic/1487832630690_1000000385_0.jpg"
  },
  {
    "id": "1000000070",
    "name": "고려대학교안암병원장례식장",
    "category": "FUNERAL_HOME",
    "address": "서울특별시 성북구 안암동5가  126-1 고대안암병원장례식장",
    "phone": "02-923-4442",
    "priceRange": {
      "min": 0,
      "max": 0
    },
    "hasParking": true,
    "coordinates": {
      "lat": 37.589312,
      "lng": 127.025909
    },
    "fileUrl": "/BCUser/facilitypic/1000000070/1554194983893.jpg"
  },
  {
    "id": "1000000068",
    "name": "고려대안산병원장례식장",
    "category": "FUNERAL_HOME",
    "address": "경기도 안산시 단원구 적금로 123 (고잔동, 고려대학병원)",
    "phone": "031-411-4441",
    "priceRange": {
      "min": 0,
      "max": 0
    },
    "hasParking": true,
    "coordinates": {
      "lat": 37.3191333,
      "lng": 126.8252651
    },
    "fileUrl": "/BCUser/facilitypic/1460682259028_1000000068_0.JPG"
  },
  {
    "id": "1000000060",
    "name": "강동경희대학교병원장례식장",
    "category": "FUNERAL_HOME",
    "address": "서울특별시 강동구 동남로 892 (상일동, 강동경희대학교병원)",
    "phone": "02-440-8800",
    "priceRange": {
      "min": 0,
      "max": 0
    },
    "hasParking": true,
    "coordinates": {
      "lat": 37.5528301,
      "lng": 127.1571983
    },
    "fileUrl": "/BCUser/facilitypic/1000000060/1474974736026.jpg"
  },
  {
    "id": "1000000646",
    "name": "이대목동병원장례식장",
    "category": "FUNERAL_HOME",
    "address": "서울특별시 양천구 안양천로 1071 (목동, 이화여대목동병원)",
    "phone": "02-2650-5121",
    "priceRange": {
      "min": 0,
      "max": 0
    },
    "hasParking": true,
    "coordinates": {
      "lat": 37.5363794,
      "lng": 126.8864324
    },
    "fileUrl": "/BCUser/facilitypic/1000000646/1554194663915.jpg"
  },
  {
    "id": "1000000053",
    "name": "경상국립대학교병원장례식장",
    "category": "FUNERAL_HOME",
    "address": "경상남도 진주시 강남로 79 (칠암동, 경상대학교병원)",
    "phone": "055-750-8448",
    "priceRange": {
      "min": 0,
      "max": 0
    },
    "hasParking": true,
    "coordinates": {
      "lat": 35.176487,
      "lng": 128.095596
    },
    "fileUrl": "/BCUser/facilitypic/1468312924477_1000000053_0.jpg"
  },
  {
    "id": "7000002186",
    "name": "이대서울병원장례식장",
    "category": "FUNERAL_HOME",
    "address": "서울특별시 강서구 공항대로 260 (마곡동, 이화의대부속서울병원)",
    "phone": "02-6986-4440",
    "priceRange": {
      "min": 0,
      "max": 0
    },
    "hasParking": true,
    "coordinates": {
      "lat": 37.557953,
      "lng": 126.836319
    },
    "fileUrl": "/BCUser/facilitypic/7000002186/1554195467481.jpg"
  },
  {
    "id": "1000000546",
    "name": "연세대학교 신촌장례식장",
    "category": "FUNERAL_HOME",
    "address": "서울특별시 서대문구 연세로 50-1 (신촌동, 연세의료원)",
    "phone": "02-2227-7500",
    "priceRange": {
      "min": 0,
      "max": 0
    },
    "hasParking": true,
    "coordinates": {
      "lat": 37.564089,
      "lng": 126.9389809
    },
    "fileUrl": "/BCUser/facilitypic/1508199653150_1000000546_0.jpg"
  },
  {
    "id": "1000000059",
    "name": "경찰병원장례식장",
    "category": "FUNERAL_HOME",
    "address": "서울특별시 송파구 송이로 123 (가락동, 국립경찰병원)",
    "phone": "02-431-4400",
    "priceRange": {
      "min": 0,
      "max": 0
    },
    "hasParking": true,
    "coordinates": {
      "lat": 37.4964365,
      "lng": 127.1233624
    },
    "fileUrl": "/BCUser/facilitypic/1000000059/1554274016783.jpg"
  },
  {
    "id": "1000000243",
    "name": "보람상조개발(주)양산부산대병원장례식장",
    "category": "FUNERAL_HOME",
    "address": "경상남도 양산시 물금읍 금오로 20 (양산부산대학교병원 장례식장) ",
    "phone": "055-372-4447",
    "priceRange": {
      "min": 0,
      "max": 0
    },
    "hasParking": true,
    "coordinates": {
      "lat": 35.327951,
      "lng": 129.004603
    },
    "fileUrl": "/BCUser/facilitypic/1642493532503.JPG"
  },
  {
    "id": "1000000062",
    "name": "경희의료원장례식장",
    "category": "FUNERAL_HOME",
    "address": "서울특별시 동대문구 경희대로 23,경희의료원장례식장 (회기동, 경희의료원)",
    "phone": "02-958-9721",
    "priceRange": {
      "min": 0,
      "max": 0
    },
    "hasParking": true,
    "coordinates": {
      "lat": 37.593503,
      "lng": 127.051329
    },
    "fileUrl": "/BCUser/facilitypic/1332492373233_1000000062_0.JPG"
  },
  {
    "id": "1000000545",
    "name": "연세대학교 원주장례식장",
    "category": "FUNERAL_HOME",
    "address": "강원도 원주시 일산로 20,내 (일산동, 연세대학교원주세브란스기독병원)",
    "phone": "033-744-3969",
    "priceRange": {
      "min": 0,
      "max": 0
    },
    "hasParking": true,
    "coordinates": {
      "lat": 37.348731,
      "lng": 127.944251
    },
    "fileUrl": "/BCUser/facilitypic/1000000545/1554881307505.jpg"
  },
  {
    "id": "1000000366",
    "name": "샘안양병원장례식장",
    "category": "FUNERAL_HOME",
    "address": "경기도 안양시 만안구 삼덕로 9,613-8 (안양동, 안양샘병원)",
    "phone": "031-467-9114",
    "priceRange": {
      "min": 0,
      "max": 0
    },
    "hasParking": true,
    "coordinates": {
      "lat": 37.3934995,
      "lng": 126.9245371
    },
    "fileUrl": "/BCUser/facilitypic/1000000366/1559113945904.jpg"
  },
  {
    "id": "1000000345",
    "name": "삼성서울병원장례식장",
    "category": "FUNERAL_HOME",
    "address": "서울특별시 강남구 일원로 81 (일원동, 삼성의료원)",
    "phone": "02-3410-3151",
    "priceRange": {
      "min": 0,
      "max": 0
    },
    "hasParking": true,
    "coordinates": {
      "lat": 37.4889432,
      "lng": 127.0876424
    },
    "fileUrl": "/BCUser/facilitypic/1000000345/1474973044003.jpg"
  },
  {
    "id": "1000000630",
    "name": "원자력병원장례식장",
    "category": "FUNERAL_HOME",
    "address": "서울특별시 노원구 노원로 75 (공릉동, 한국원자력의학원)",
    "phone": "02-970-1288",
    "priceRange": {
      "min": 0,
      "max": 0
    },
    "hasParking": true,
    "coordinates": {
      "lat": 37.6294332,
      "lng": 127.0826468
    },
    "fileUrl": "/BCUser/facilitypic/1478507464406_1000000630_0.jpg"
  },
  {
    "id": "7000002320",
    "name": "성남시의료원장례식장",
    "category": "FUNERAL_HOME",
    "address": "경기도 성남시 수정구 수정로171번길 10 (태평동, 성남시의료원)",
    "phone": "031-738-7450",
    "priceRange": {
      "min": 0,
      "max": 0
    },
    "hasParking": true,
    "coordinates": {
      "lat": 37.444872,
      "lng": 127.138907
    },
    "fileUrl": "/BCUser/facilitypic/1581907250970_7000002320_0.jpg"
  },
  {
    "id": "7000000818",
    "name": "울산하늘공원 장례식장",
    "category": "FUNERAL_HOME",
    "address": "울산광역시 울주군 삼동면 보삼길 550 (조일리)",
    "phone": "052-255-3800",
    "priceRange": {
      "min": 0,
      "max": 0
    },
    "hasParking": true,
    "coordinates": {
      "lat": 35.470614,
      "lng": 129.133603
    },
    "fileUrl": "/BCUser/facilitypic/1465801650706_7000000818_0.jpg"
  },
  {
    "id": "7000002217",
    "name": "교원예움 아산장례식장",
    "category": "FUNERAL_HOME",
    "address": "충청남도 아산시 신정로 713 (방축동62-7, 방축동 42-1) ",
    "phone": "041-549-4441",
    "priceRange": {
      "min": 0,
      "max": 0
    },
    "hasParking": true,
    "coordinates": {
      "lat": 36.781397,
      "lng": 126.987084
    },
    "fileUrl": "/BCUser/facilitypic/1625533627499.JPG"
  },
  {
    "id": "1000000645",
    "name": "의정부성모장례식장",
    "category": "FUNERAL_HOME",
    "address": "경기도 의정부시 천보로 271 (금오동, 의정부성모병원)",
    "phone": "031-820-3468",
    "priceRange": {
      "min": 0,
      "max": 0
    },
    "hasParking": true,
    "coordinates": {
      "lat": 37.758672,
      "lng": 127.078544
    },
    "fileUrl": "/BCUser/facilitypic/1000000645/1563433204283.jpg"
  },
  {
    "id": "7000001029",
    "name": "(재)하늘가장례식장",
    "category": "FUNERAL_HOME",
    "address": "경기도 화성시 향남읍 발안로 322 (관리)",
    "phone": "031-366-4444",
    "priceRange": {
      "min": 0,
      "max": 0
    },
    "hasParking": true,
    "coordinates": {
      "lat": 37.1327958,
      "lng": 126.9420045
    },
    "fileUrl": "/BCUser/facilitypic/1435812872123_7000001029_0.jpg"
  },
  {
    "id": "7000001214",
    "name": "충주병원장례식장(주)",
    "category": "FUNERAL_HOME",
    "address": "충청북도 충주시 중심1길 12 (문화동)",
    "phone": "043-845-5100",
    "priceRange": {
      "min": 0,
      "max": 0
    },
    "hasParking": true,
    "coordinates": {
      "lat": 36.973654,
      "lng": 127.925801
    },
    "fileUrl": "/BCUser/facilitypic/1473156851859_7000001214_0.jpg"
  },
  {
    "id": "7000000945",
    "name": "오포장례식장",
    "category": "FUNERAL_HOME",
    "address": "경기도 광주시 오포읍 오포로 225-7 (능평리)",
    "phone": "031-797-0444",
    "priceRange": {
      "min": 0,
      "max": 0
    },
    "hasParking": true,
    "coordinates": {
      "lat": 37.351262,
      "lng": 127.186579
    },
    "fileUrl": "/BCUser/facilitypic/7000000945/1554880951726.jpg"
  },
  {
    "id": "1000000415",
    "name": "가톨릭대학교 은평성모장례식장",
    "category": "FUNERAL_HOME",
    "address": "서울특별시 은평구 통일로 1021,은평성모장례식장 (진관동)",
    "phone": "02-2030-4444",
    "priceRange": {
      "min": 0,
      "max": 0
    },
    "hasParking": true,
    "coordinates": {
      "lat": 37.633114,
      "lng": 126.916595
    },
    "fileUrl": "/BCUser/facilitypic/1000000415/1569217241767.jpg"
  },
  {
    "id": "7000002961",
    "name": "춘천시민장례식장",
    "category": "FUNERAL_HOME",
    "address": "강원특별자치도 춘천시 영서로 2970 (사농동, 강원도새마을회관)",
    "phone": "033-244-4044",
    "priceRange": {
      "min": 0,
      "max": 0
    },
    "hasParking": true,
    "coordinates": {
      "lat": null,
      "lng": null
    },
    "fileUrl": "/BCUser/facilitypic/7000002961/1762996020828.jpg"
  },
  {
    "id": "1000000110",
    "name": "차병원장례식장",
    "category": "FUNERAL_HOME",
    "address": "경상북도 구미시 신시로10길 12 (형곡동, 차병원)",
    "phone": "054-452-1919",
    "priceRange": {
      "min": 0,
      "max": 0
    },
    "hasParking": true,
    "coordinates": {
      "lat": 36.1147524,
      "lng": 128.3407379
    },
    "fileUrl": "/BCUser/facilitypic/1000000110/1561614478417.jpg"
  },
  {
    "id": "7000000519",
    "name": "교원예움 강원장례식장",
    "category": "FUNERAL_HOME",
    "address": "강원도 춘천시 동내면 순환대로 877 (거두리)",
    "phone": "033-261-4441",
    "priceRange": {
      "min": 0,
      "max": 0
    },
    "hasParking": true,
    "coordinates": {
      "lat": 37.857811,
      "lng": 127.77493
    },
    "fileUrl": "/BCUser/facilitypic/7000000519/1561077247868.jpg"
  },
  {
    "id": "1000000411",
    "name": "청주성모병원 장례식장",
    "category": "FUNERAL_HOME",
    "address": "충청북도 청주시 청원구 주성로 173-19 (주중동)",
    "phone": "043-210-5444",
    "priceRange": {
      "min": 0,
      "max": 0
    },
    "hasParking": true,
    "coordinates": {
      "lat": 36.673321,
      "lng": 127.483993
    },
    "fileUrl": "/BCUser/facilitypic/1000000411/1474967748480.jpg"
  },
  {
    "id": "1000000723",
    "name": "대우병원장례식장",
    "category": "FUNERAL_HOME",
    "address": "경상남도 거제시 두모길 16 (두모동, 대우병원)",
    "phone": "055-680-8444",
    "priceRange": {
      "min": 0,
      "max": 0
    },
    "hasParking": true,
    "coordinates": {
      "lat": 34.871941,
      "lng": 128.722103
    },
    "fileUrl": "/BCUser/facilitypic/1421819769620_1000000723_0.JPG"
  },
  {
    "id": "1000000320",
    "name": "부산전문장례식장",
    "category": "FUNERAL_HOME",
    "address": "부산광역시 사상구 낙동대로 1056 (감전동, 부산전문장례예식장)",
    "phone": "051-312-4444",
    "priceRange": {
      "min": 0,
      "max": 0
    },
    "hasParking": true,
    "coordinates": {
      "lat": 35.1544536,
      "lng": 128.9737538
    },
    "fileUrl": "/BCUser/facilitypic/1740014214313.jpg"
  },
  {
    "id": "7000000904",
    "name": "(주)시민장례식장",
    "category": "FUNERAL_HOME",
    "address": "부산광역시 부산진구 자유평화로 31 (범천동)",
    "phone": "051-636-4444",
    "priceRange": {
      "min": 0,
      "max": 0
    },
    "hasParking": true,
    "coordinates": {
      "lat": 35.1416249,
      "lng": 129.0632007
    },
    "fileUrl": "/BCUser/facilitypic/7000000904/1556525073625.jpg"
  },
  {
    "id": "1000000906",
    "name": "호반병원장례식장",
    "category": "FUNERAL_HOME",
    "address": "강원도 춘천시 옛경춘로 663 (삼천동)",
    "phone": "033-252-0046",
    "priceRange": {
      "min": 0,
      "max": 0
    },
    "hasParking": true,
    "coordinates": {
      "lat": 37.856811,
      "lng": 127.707125
    },
    "fileUrl": "/BCUser/facilitypic/1327455595511_1000000906_0.jpg"
  },
  {
    "id": "7000001460",
    "name": "창원경상대학교병원장례식장",
    "category": "FUNERAL_HOME",
    "address": "경상남도 창원시 성산구 삼정자로 9 (성주동)",
    "phone": "055-214-1900",
    "priceRange": {
      "min": 0,
      "max": 0
    },
    "hasParking": true,
    "coordinates": {
      "lat": 35.198866,
      "lng": 128.705248
    },
    "fileUrl": "/BCUser/facilitypic/1474939320192_7000001460_0.jpg"
  },
  {
    "id": "1000000635",
    "name": "삼육서울병원 추모관(구위생병원)",
    "category": "FUNERAL_HOME",
    "address": "서울특별시 동대문구 망우로 82 (휘경동)",
    "phone": "02-2215-4444",
    "priceRange": {
      "min": 0,
      "max": 0
    },
    "hasParking": true,
    "coordinates": {
      "lat": 37.5892778,
      "lng": 127.0645418
    },
    "fileUrl": "/BCUser/facilitypic/1467075632922_1000000635_0.jpg"
  },
  {
    "id": "1000000115",
    "name": "대구의료원 국화원 장례식장",
    "category": "FUNERAL_HOME",
    "address": "대구광역시 서구 평리로 157 (중리동, 대구의료원)",
    "phone": "053-560-9552",
    "priceRange": {
      "min": 0,
      "max": 0
    },
    "hasParking": true,
    "coordinates": {
      "lat": 35.8596025,
      "lng": 128.5405922
    },
    "fileUrl": "/BCUser/facilitypic/1565144735123_1000000115_0.jpg"
  },
  {
    "id": "1000000691",
    "name": "(주)코스모스제일장례식장",
    "category": "FUNERAL_HOME",
    "address": "경기도 안산시 상록구 수인로 1222 (일동)",
    "phone": "031-406-2000",
    "priceRange": {
      "min": 0,
      "max": 0
    },
    "hasParking": true,
    "coordinates": {
      "lat": 37.30335,
      "lng": 126.87555
    },
    "fileUrl": "/BCUser/facilitypic/1486800015757_1000000691_0.jpg"
  },
  {
    "id": "1000000195",
    "name": "당진중앙장례식장",
    "category": "FUNERAL_HOME",
    "address": "충청남도 당진시 송악읍 조비실길 47 (광명리)",
    "phone": "041-358-3000",
    "priceRange": {
      "min": 0,
      "max": 0
    },
    "hasParking": true,
    "coordinates": {
      "lat": 36.896927,
      "lng": 126.7200683
    },
    "fileUrl": "/BCUser/facilitypic/1486664384089_1000000195_0.jpg"
  },
  {
    "id": "7000000901",
    "name": "맑은샘병원장례식장",
    "category": "FUNERAL_HOME",
    "address": "경상남도 거제시 연초면 거제대로 4477 (연사리, 맑은샘병원)",
    "phone": "055-636-4800",
    "priceRange": {
      "min": 0,
      "max": 0
    },
    "hasParking": true,
    "coordinates": {
      "lat": 34.898012,
      "lng": 128.643777
    },
    "fileUrl": "/BCUser/facilitypic/1443220208980_7000000901_0.jpg"
  },
  {
    "id": "7000002064",
    "name": "한국보훈복지의료공단중앙보훈병원",
    "category": "FUNERAL_HOME",
    "address": "서울특별시 강동구 진황도로61길 53 (둔촌동, 중앙보훈병원)",
    "phone": "02-2225-1004",
    "priceRange": {
      "min": 0,
      "max": 0
    },
    "hasParking": true,
    "coordinates": {
      "lat": 37.527957,
      "lng": 127.147848
    },
    "fileUrl": "/BCUser/facilitypic/7000002064/1554264819404.jpg"
  },
  {
    "id": "7000001639",
    "name": "울산시티병원장례식장",
    "category": "FUNERAL_HOME",
    "address": "울산광역시 북구 산업로 1001, B1층 (연암동)",
    "phone": "052-280-8400",
    "priceRange": {
      "min": 0,
      "max": 0
    },
    "hasParking": true,
    "coordinates": {
      "lat": 35.583027,
      "lng": 129.35866
    },
    "fileUrl": "/BCUser/facilitypic/1494462995379_7000001639_0.jpg"
  },
  {
    "id": "7000002637",
    "name": "대구가톨릭대학교의료원 장례식장",
    "category": "FUNERAL_HOME",
    "address": "대구광역시 남구 두류공원로17길 33 (대명동, 대구가톨릭의과대학병원)",
    "phone": "053-650-4444",
    "priceRange": {
      "min": 0,
      "max": 0
    },
    "hasParking": true,
    "coordinates": {
      "lat": 35.843133,
      "lng": 128.568421
    },
    "fileUrl": "/BCUser/facilitypic/1662536517481.png"
  },
  {
    "id": "7000002402",
    "name": "대동병원장례식장",
    "category": "FUNERAL_HOME",
    "address": "부산광역시 동래구 충렬대로181번길 22 (지하1층, 2층) ",
    "phone": "051-550-9991",
    "priceRange": {
      "min": 0,
      "max": 0
    },
    "hasParking": true,
    "coordinates": {
      "lat": 35.2047092872,
      "lng": 129.0802705387
    },
    "fileUrl": "/BCUser/facilitypic/1597962104523_7000002402_0.JPG"
  },
  {
    "id": "1000000349",
    "name": "삼신전문장례식장",
    "category": "FUNERAL_HOME",
    "address": "부산광역시 사상구 대동로 261 (감전동)",
    "phone": "051-323-0044",
    "priceRange": {
      "min": 0,
      "max": 0
    },
    "hasParking": true,
    "coordinates": {
      "lat": 35.1508737,
      "lng": 128.985406
    },
    "fileUrl": "/BCUser/facilitypic/1605855789031_1000000349_0.jpg"
  },
  {
    "id": "1000000037",
    "name": "강원대학교병원장례식장",
    "category": "FUNERAL_HOME",
    "address": "강원도 춘천시 백령로 156 (효자동)",
    "phone": "033-254-5611",
    "priceRange": {
      "min": 0,
      "max": 0
    },
    "hasParking": true,
    "coordinates": {
      "lat": 37.875051,
      "lng": 127.745591
    },
    "fileUrl": "/BCUser/facilitypic/1000000037/1555317175361.jpg"
  },
  {
    "id": "1000000682",
    "name": "정읍아산병원장례식장",
    "category": "FUNERAL_HOME",
    "address": "전라북도 정읍시 충정로 606-22 (용계동)",
    "phone": "063-530-6644",
    "priceRange": {
      "min": 0,
      "max": 0
    },
    "hasParking": true,
    "coordinates": {
      "lat": 35.589586,
      "lng": 126.822439
    },
    "fileUrl": "/BCUser/facilitypic/1000000682/1554881816601.jpg"
  },
  {
    "id": "7000002171",
    "name": "고아농협 장례문화원",
    "category": "FUNERAL_HOME",
    "address": "경상북도 구미시 고아읍 오로4길 112 (오로리)",
    "phone": "054-482-7411",
    "priceRange": {
      "min": 0,
      "max": 0
    },
    "hasParking": true,
    "coordinates": {
      "lat": 36.219906,
      "lng": 128.325109
    },
    "fileUrl": "/BCUser/facilitypic/1694045514085.jpeg"
  },
  {
    "id": "1000000067",
    "name": "계명대학교동산병원백합원",
    "category": "FUNERAL_HOME",
    "address": "대구광역시 달서구 달구벌대로 1035 (신당동, 계명대학교동산병원)",
    "phone": "053-258-4444",
    "priceRange": {
      "min": 0,
      "max": 0
    },
    "hasParking": true,
    "coordinates": {
      "lat": 35.853462,
      "lng": 128.479815
    },
    "fileUrl": "/BCUser/facilitypic/1562986458815_1000000067_0.jpg"
  },
  {
    "id": "7000000289",
    "name": "해운대백병원장례식장",
    "category": "FUNERAL_HOME",
    "address": "부산광역시 해운대구 해운대로 875 (좌동, 인제대학교해운대백병원)",
    "phone": "051-893-4444",
    "priceRange": {
      "min": 0,
      "max": 0
    },
    "hasParking": true,
    "coordinates": {
      "lat": 35.1733441,
      "lng": 129.1822042
    },
    "fileUrl": "/BCUser/facilitypic/1481178293568_7000000289_0.JPG"
  },
  {
    "id": "1000000045",
    "name": "건국대학교병원장례식장",
    "category": "FUNERAL_HOME",
    "address": "서울특별시 광진구 능동로 120-1 (화양동)",
    "phone": "02-2030-7900",
    "priceRange": {
      "min": 0,
      "max": 0
    },
    "hasParking": true,
    "coordinates": {
      "lat": 37.5408245,
      "lng": 127.0722209
    },
    "fileUrl": "/BCUser/facilitypic/1000000045/1554355593217.png"
  },
  {
    "id": "1000000535",
    "name": "여의도성모장례식장",
    "category": "FUNERAL_HOME",
    "address": "서울특별시 영등포구 63로 10 (여의도동, 여의도성모병원)",
    "phone": "02-3779-1526",
    "priceRange": {
      "min": 0,
      "max": 0
    },
    "hasParking": true,
    "coordinates": {
      "lat": 37.5179713,
      "lng": 126.936089
    },
    "fileUrl": "/BCUser/facilitypic/1000000535/1554355262296.png"
  },
  {
    "id": "1000000233",
    "name": "동래봉생병원장례식장",
    "category": "FUNERAL_HOME",
    "address": "부산광역시 동래구 충렬대로348번길 23 (낙민동, 설봉빌딩)",
    "phone": "051-531-7100",
    "priceRange": {
      "min": 0,
      "max": 0
    },
    "hasParking": true,
    "coordinates": {
      "lat": 35.1971164,
      "lng": 129.0964074
    },
    "fileUrl": "/BCUser/facilitypic/1691391709962.jpg"
  },
  {
    "id": "7000002100",
    "name": "고신대병원 장례식장",
    "category": "FUNERAL_HOME",
    "address": "부산광역시 서구 감천로 262 (암남동, 고신대학교복음병원)",
    "phone": "051-990-6444",
    "priceRange": {
      "min": 0,
      "max": 0
    },
    "hasParking": false,
    "coordinates": {
      "lat": 35.080982,
      "lng": 129.015205
    },
    "fileUrl": "/BCUser/facilitypic/7000002100/1561612803706.jpg"
  },
  {
    "id": "7000002730",
    "name": "신세계장례식장",
    "category": "FUNERAL_HOME",
    "address": "경상남도 창원시 마산회원구 내서읍 죽암로 89 (호계리, 신세계요양병원)",
    "phone": "055-715-5444",
    "priceRange": {
      "min": 0,
      "max": 0
    },
    "hasParking": true,
    "coordinates": {
      "lat": 35.2599472584,
      "lng": 128.5091689565
    },
    "fileUrl": "/BCUser/facilitypic/1713656537516.jpg"
  },
  {
    "id": "7000002705",
    "name": "큰사랑요양병원장례식장",
    "category": "FUNERAL_HOME",
    "address": "경상남도 창원시 마산회원구 북성로 469 (두척동, 큰사랑요양병원)",
    "phone": "055-231-5444",
    "priceRange": {
      "min": 0,
      "max": 0
    },
    "hasParking": true,
    "coordinates": {
      "lat": 35.236301,
      "lng": 128.546919
    },
    "fileUrl": "/BCUser/facilitypic/1688796621762.jfif"
  },
  {
    "id": "1000000372",
    "name": "서산의료원상례원",
    "category": "FUNERAL_HOME",
    "address": "충청남도 서산시 중앙로 149 (석림동)",
    "phone": "041-689-7444",
    "priceRange": {
      "min": 0,
      "max": 0
    },
    "hasParking": true,
    "coordinates": {
      "lat": 36.77581,
      "lng": 126.465327
    },
    "fileUrl": "/BCUser/facilitypic/1000000372/1554257725200.jpg"
  },
  {
    "id": "7000002802",
    "name": "순천향서울장례식장",
    "category": "FUNERAL_HOME",
    "address": "서울특별시 용산구 대사관로 59 (한남동, 순천향대학병원)",
    "phone": "02-797-4444",
    "priceRange": {
      "min": 0,
      "max": 0
    },
    "hasParking": false,
    "coordinates": {
      "lat": 37.534438,
      "lng": 127.00457
    },
    "fileUrl": "/BCUser/facilitypic/7000002802/1721363520221.jfif"
  },
  {
    "id": "1000000875",
    "name": "한중프라임장례식장",
    "category": "FUNERAL_HOME",
    "address": "부산광역시 북구 낙동대로 1596 (구포동)",
    "phone": "051-305-4000",
    "priceRange": {
      "min": 0,
      "max": 0
    },
    "hasParking": true,
    "coordinates": {
      "lat": 35.1986789,
      "lng": 128.9904997
    },
    "fileUrl": "/BCUser/facilitypic/1000000875/1562897487049.jpg"
  },
  {
    "id": "1000000788",
    "name": "청주의료원장례식장",
    "category": "FUNERAL_HOME",
    "address": "충청북도 청주시 서원구 흥덕로 48 (사직동)",
    "phone": "043-279-0144",
    "priceRange": {
      "min": 0,
      "max": 0
    },
    "hasParking": true,
    "coordinates": {
      "lat": 36.641222,
      "lng": 127.473702
    },
    "fileUrl": "/BCUser/facilitypic/1000000788/1554273491427.jpg"
  },
  {
    "id": "1000000603",
    "name": "왜관병원장례식장",
    "category": "FUNERAL_HOME",
    "address": "경상북도 칠곡군 왜관읍 군청2길 10 (왜관리, 왜관병원)",
    "phone": "054-976-4446",
    "priceRange": {
      "min": 0,
      "max": 0
    },
    "hasParking": true,
    "coordinates": {
      "lat": 35.9961354,
      "lng": 128.4015608
    },
    "fileUrl": "/BCUser/facilitypic/1000000603/1564382516395.jpg"
  },
  {
    "id": "7000002387",
    "name": "춘천장례식장",
    "category": "FUNERAL_HOME",
    "address": "강원특별자치도 춘천시 동면 소양강로 409 (장학리)",
    "phone": "033-256-4444",
    "priceRange": {
      "min": 0,
      "max": 0
    },
    "hasParking": true,
    "coordinates": {
      "lat": 37.920044,
      "lng": 127.755258
    },
    "fileUrl": "/BCUser/facilitypic/1589166239816_7000002387_0.jpg"
  },
  {
    "id": "7000002174",
    "name": "삼봉장례식장",
    "category": "FUNERAL_HOME",
    "address": "전라북도 완주군 삼례읍 과학로 466 (신탁리)",
    "phone": "063-261-4445",
    "priceRange": {
      "min": 0,
      "max": 0
    },
    "hasParking": true,
    "coordinates": {
      "lat": 35.91026,
      "lng": 127.125673
    },
    "fileUrl": "/BCUser/facilitypic/7000002174/1555488699327.jpg"
  },
  {
    "id": "7000002235",
    "name": "부산백병원 장례식장",
    "category": "FUNERAL_HOME",
    "address": "부산광역시 부산진구 복지로 75 (개금동, 부산백병원)",
    "phone": "051-896-4444",
    "priceRange": {
      "min": 0,
      "max": 0
    },
    "hasParking": true,
    "coordinates": {
      "lat": 35.14625,
      "lng": 129.020908
    },
    "fileUrl": "/BCUser/facilitypic/7000002235/1562897130510.jpg"
  },
  {
    "id": "7000001970",
    "name": "구미푸른요양병원장례식장",
    "category": "FUNERAL_HOME",
    "address": "경상북도 구미시 장천면 산호대로 1391 (하장리)",
    "phone": "054-474-4443",
    "priceRange": {
      "min": 0,
      "max": 0
    },
    "hasParking": true,
    "coordinates": {
      "lat": 36.1365413,
      "lng": 128.4800816
    },
    "fileUrl": "/BCUser/facilitypic/7000001970/1563514982534.jpg"
  },
  {
    "id": "1000000718",
    "name": "합천추모공원장례식장",
    "category": "FUNERAL_HOME",
    "address": "경상남도 합천군 합천읍 합천호수로 1613 (합천리)",
    "phone": "055-934-4444",
    "priceRange": {
      "min": 0,
      "max": 0
    },
    "hasParking": false,
    "coordinates": {
      "lat": 35.565937,
      "lng": 128.145269
    },
    "fileUrl": "/BCUser/facilitypic/1000000718/1560321354411.jpg"
  },
  {
    "id": "1000000659",
    "name": "일산백장례서비스(주)",
    "category": "FUNERAL_HOME",
    "address": "경기도 고양시 일산서구 주화로 170,일산백병원B2층 (대화동)",
    "phone": "031-910-7444",
    "priceRange": {
      "min": 0,
      "max": 0
    },
    "hasParking": true,
    "coordinates": {
      "lat": 37.6742288,
      "lng": 126.750367
    },
    "fileUrl": "/BCUser/facilitypic/1000000659/1555652473900.jpg"
  },
  {
    "id": "1000000318",
    "name": "부산성모병원장례식장",
    "category": "FUNERAL_HOME",
    "address": "부산광역시 남구 용호로232번길 25-14 (용호동)",
    "phone": "051-933-7480",
    "priceRange": {
      "min": 0,
      "max": 0
    },
    "hasParking": true,
    "coordinates": {
      "lat": 35.110167,
      "lng": 129.1092
    },
    "fileUrl": "/BCUser/facilitypic/1000000318/1556500678238.jpg"
  },
  {
    "id": "1000000253",
    "name": "삼성창원병원장례식장",
    "category": "FUNERAL_HOME",
    "address": "경상남도 창원시 마산회원구 팔용로 158 (합성동, 삼성창원병원)",
    "phone": "055-233-5131",
    "priceRange": {
      "min": 0,
      "max": 0
    },
    "hasParking": true,
    "coordinates": {
      "lat": 35.242351,
      "lng": 128.593019
    },
    "fileUrl": "/BCUser/facilitypic/1713249589629.jpg"
  },
  {
    "id": "1000000587",
    "name": "예천농협장례식장",
    "category": "FUNERAL_HOME",
    "address": "경상북도 예천군 예천읍 양궁로 154 (청복리)",
    "phone": "054-655-0990",
    "priceRange": {
      "min": 0,
      "max": 0
    },
    "hasParking": true,
    "coordinates": {
      "lat": 36.640004,
      "lng": 128.465477
    },
    "fileUrl": "/BCUser/facilitypic/1711944654828.jpeg"
  },
  {
    "id": "1000000103",
    "name": "괴정병원장례식장",
    "category": "FUNERAL_HOME",
    "address": "부산광역시 사하구 낙동대로249번길 11 (괴정동)",
    "phone": "051-293-4382",
    "priceRange": {
      "min": 0,
      "max": 0
    },
    "hasParking": true,
    "coordinates": {
      "lat": 35.0988856,
      "lng": 128.9903704
    },
    "fileUrl": "/BCUser/facilitypic/1000000103/1561613349917.jpg"
  },
  {
    "id": "1000000327",
    "name": "부천성모병원장례식장",
    "category": "FUNERAL_HOME",
    "address": "경기도 부천시 원미구 소사로 327 (소사동, 가톨릭대부천성모병원)",
    "phone": "032-340-7300",
    "priceRange": {
      "min": 0,
      "max": 0
    },
    "hasParking": true,
    "coordinates": {
      "lat": 37.4869907,
      "lng": 126.7925731
    },
    "fileUrl": "/BCUser/facilitypic/1466645271213_1000000327_0.jpg"
  },
  {
    "id": "1000000023",
    "name": "강동성심병원장례식장",
    "category": "FUNERAL_HOME",
    "address": "서울특별시 강동구 성안로 150 (길동, 강동성심병원)",
    "phone": "02-470-1692",
    "priceRange": {
      "min": 0,
      "max": 0
    },
    "hasParking": true,
    "coordinates": {
      "lat": 37.5361,
      "lng": 127.1353505
    },
    "fileUrl": "/BCUser/facilitypic/1000000023/1474975523016.jpg"
  },
  {
    "id": "7000001971",
    "name": "구미천사요양병원장례식장",
    "category": "FUNERAL_HOME",
    "address": "경상북도 구미시 고아읍 이례로 46 (이례리)",
    "phone": "054-481-4441",
    "priceRange": {
      "min": 0,
      "max": 0
    },
    "hasParking": true,
    "coordinates": {
      "lat": 36.205677,
      "lng": 128.3205239
    },
    "fileUrl": "/BCUser/facilitypic/1531888394644_7000001971_0.jpg"
  },
  {
    "id": "7000002592",
    "name": "구미제일요양병원장례식장",
    "category": "FUNERAL_HOME",
    "address": "경상북도 구미시 고아읍 선산대로 1116 (오로리, 제일병원)",
    "phone": "054-481-1900",
    "priceRange": {
      "min": 0,
      "max": 0
    },
    "hasParking": true,
    "coordinates": {
      "lat": 36.217149,
      "lng": 128.316105
    },
    "fileUrl": "/BCUser/facilitypic/7000002592/1709687959835.PNG"
  },
  {
    "id": "7000002607",
    "name": "(주)착한전문장례식장",
    "category": "FUNERAL_HOME",
    "address": "부산광역시 동래구 반송로 183 (낙민동, RP안락점)",
    "phone": "051-987-1024",
    "priceRange": {
      "min": 0,
      "max": 0
    },
    "hasParking": true,
    "coordinates": {
      "lat": 35.198008,
      "lng": 129.09537
    },
    "fileUrl": "/BCUser/facilitypic/1715845842469.jpg"
  },
  {
    "id": "1000000057",
    "name": "경주전문장례식장",
    "category": "FUNERAL_HOME",
    "address": "경상북도 경주시 유림로97번길 45 (황성동)",
    "phone": "054-744-4000",
    "priceRange": {
      "min": 0,
      "max": 0
    },
    "hasParking": true,
    "coordinates": {
      "lat": 35.8721264,
      "lng": 129.2224867
    },
    "fileUrl": "/BCUser/facilitypic/1000000057/1560322750181.jpg"
  },
  {
    "id": "1000000750",
    "name": "진도군산림조합직영추모관장례식장",
    "category": "FUNERAL_HOME",
    "address": "전라남도 진도군 진도읍 진도대로 7143-10 (쌍정리)",
    "phone": "061-543-4040",
    "priceRange": {
      "min": 0,
      "max": 0
    },
    "hasParking": true,
    "coordinates": {
      "lat": 34.4783883,
      "lng": 126.2659666
    },
    "fileUrl": "/BCUser/facilitypic/1465952303316_1000000750_0.JPG"
  },
  {
    "id": "1000000051",
    "name": "경북대학교병원장례식장",
    "category": "FUNERAL_HOME",
    "address": "대구광역시 중구 동덕로 130 (삼덕동2가, 경북대학교병원)",
    "phone": "053-200-6464",
    "priceRange": {
      "min": 0,
      "max": 0
    },
    "hasParking": true,
    "coordinates": {
      "lat": 35.865942,
      "lng": 128.6051356
    },
    "fileUrl": "/BCUser/facilitypic/1000000051/1554969054824.jpg"
  },
  {
    "id": "7000002573",
    "name": "인천가족공원장례식장",
    "category": "FUNERAL_HOME",
    "address": "인천광역시 남동구 만월북로 115 (간석동, 인천가족공원장례식장)",
    "phone": "032-501-1925",
    "priceRange": {
      "min": 0,
      "max": 0
    },
    "hasParking": true,
    "coordinates": {
      "lat": 37.475336,
      "lng": 126.715008
    },
    "fileUrl": "/BCUser/facilitypic/1633059661299.jpg"
  },
  {
    "id": "7000002143",
    "name": "교원예움 화성장례식장",
    "category": "FUNERAL_HOME",
    "address": "경기도 화성시 마도면 쌍송북로 111 (두곡리)",
    "phone": "031-355-8000",
    "priceRange": {
      "min": 0,
      "max": 0
    },
    "hasParking": true,
    "coordinates": {
      "lat": 37.201729,
      "lng": 126.788063
    },
    "fileUrl": "/BCUser/facilitypic/7000002143/1579507836538.jpg"
  },
  {
    "id": "7000000034",
    "name": "학교법인영산학원 산본장례식장",
    "category": "FUNERAL_HOME",
    "address": "경기도 군포시 산본로 321 (산본동,원광대산본병원)",
    "phone": "031-395-4438",
    "priceRange": {
      "min": 0,
      "max": 0
    },
    "hasParking": true,
    "coordinates": {
      "lat": 37.3593764,
      "lng": 126.9335943
    },
    "fileUrl": "/BCUser/facilitypic/7000000034/1555984933204.jpg"
  },
  {
    "id": "1000000554",
    "name": "영남대학교의료원 장례식장",
    "category": "FUNERAL_HOME",
    "address": "대구광역시 남구 현충로 170 (대명동)",
    "phone": "053-620-4670",
    "priceRange": {
      "min": 0,
      "max": 0
    },
    "hasParking": true,
    "coordinates": {
      "lat": 35.847825,
      "lng": 128.584982
    },
    "fileUrl": "/BCUser/facilitypic/1000000554/1561093998243.png"
  },
  {
    "id": "1000000244",
    "name": "동의의료원장례식장",
    "category": "FUNERAL_HOME",
    "address": "부산광역시 부산진구 양정로 62,1층 (양정동,동의의료원) ",
    "phone": "051-866-3757",
    "priceRange": {
      "min": 0,
      "max": 0
    },
    "hasParking": true,
    "coordinates": {
      "lat": 35.170295,
      "lng": 129.076941
    },
    "fileUrl": "/BCUser/facilitypic/1751945747555.jpg"
  },
  {
    "id": "1000000113",
    "name": "국립중앙의료원 장례식장",
    "category": "FUNERAL_HOME",
    "address": "서울특별시 중구 을지로 245 (을지로6가, 국립중앙의료원)",
    "phone": "02-2262-4800",
    "priceRange": {
      "min": 0,
      "max": 0
    },
    "hasParking": true,
    "coordinates": {
      "lat": 37.5674232,
      "lng": 127.0059029
    },
    "fileUrl": "/BCUser/facilitypic/1000000113/1554194357834.jpg"
  },
  {
    "id": "7000001023",
    "name": "만평장례식장",
    "category": "FUNERAL_HOME",
    "address": "광주광역시 광산구 임방울대로 24 (우산동)",
    "phone": "062-611-0000",
    "priceRange": {
      "min": 0,
      "max": 0
    },
    "hasParking": true,
    "coordinates": {
      "lat": 35.1633393,
      "lng": 126.8194148
    },
    "fileUrl": "/BCUser/facilitypic/7000001023/1564464470906.jpg"
  },
  {
    "id": "7000000444",
    "name": "성심장례식장",
    "category": "FUNERAL_HOME",
    "address": "대전광역시 서구 갑천도시고속도로 1893 (월평동)",
    "phone": "042-522-4494",
    "priceRange": {
      "min": 0,
      "max": 0
    },
    "hasParking": true,
    "coordinates": {
      "lat": 36.350225,
      "lng": 127.351609
    },
    "fileUrl": "/BCUser/facilitypic/7000000444/1563951646463.png"
  },
  {
    "id": "1000000215",
    "name": "대한장례식장",
    "category": "FUNERAL_HOME",
    "address": "전라북도 전주시 완산구 구이로 2050. 대한장례식장 (평화동3가)",
    "phone": "063-227-4444",
    "priceRange": {
      "min": 0,
      "max": 0
    },
    "hasParking": true,
    "coordinates": {
      "lat": 35.7809413,
      "lng": 127.1307088
    },
    "fileUrl": "/BCUser/facilitypic/1000000215/1555490699872.png"
  },
  {
    "id": "1000000513",
    "name": "안동의료원 장례식장 국화원",
    "category": "FUNERAL_HOME",
    "address": "경상북도 안동시 태사2길 55,안동의료원 (북문동)",
    "phone": "054-850-6440",
    "priceRange": {
      "min": 0,
      "max": 0
    },
    "hasParking": true,
    "coordinates": {
      "lat": 36.568004,
      "lng": 128.732869
    },
    "fileUrl": "/BCUser/facilitypic/1465962432201_1000000513_0.JPG"
  },
  {
    "id": "7000002416",
    "name": "교원예움 서서울장례식장",
    "category": "FUNERAL_HOME",
    "address": "서울특별시 영등포구 선유로 101,교원예움서서울장례식장 (양평동1가)",
    "phone": "02-2676-4444",
    "priceRange": {
      "min": 0,
      "max": 0
    },
    "hasParking": true,
    "coordinates": {
      "lat": 37.523057,
      "lng": 126.889975
    },
    "fileUrl": "/BCUser/facilitypic/1685675779395.JPG"
  },
  {
    "id": "7000002167",
    "name": "사하구민장례식장",
    "category": "FUNERAL_HOME",
    "address": "부산광역시 사하구 하신중앙로17번길 25 (장림동)",
    "phone": "051-715-4441",
    "priceRange": {
      "min": 0,
      "max": 0
    },
    "hasParking": true,
    "coordinates": {
      "lat": 35.080704,
      "lng": 128.9619
    },
    "fileUrl": "/BCUser/facilitypic/1549145076934_7000002167_0.jpg"
  },
  {
    "id": "1000000909",
    "name": "홍성의료원장례식장",
    "category": "FUNERAL_HOME",
    "address": "충청남도 홍성군 홍성읍 조양로 224 (고암리)",
    "phone": "041-630-6244",
    "priceRange": {
      "min": 0,
      "max": 0
    },
    "hasParking": true,
    "coordinates": {
      "lat": 36.5988023,
      "lng": 126.6743322
    },
    "fileUrl": "/BCUser/facilitypic/1000000909/1554269261360.jpg"
  },
  {
    "id": "1000000229",
    "name": "동국대학교경주병원장례식장",
    "category": "FUNERAL_HOME",
    "address": "경상북도 경주시 동대로 87 (석장동)",
    "phone": "054-770-8333",
    "priceRange": {
      "min": 0,
      "max": 0
    },
    "hasParking": true,
    "coordinates": {
      "lat": 35.858607,
      "lng": 129.193041
    },
    "fileUrl": "/BCUser/facilitypic/1000000229/1563512989783.jpg"
  },
  {
    "id": "1000000382",
    "name": "서울성모장례식장",
    "category": "FUNERAL_HOME",
    "address": "서울특별시 서초구 반포대로 222 (반포동, 가톨릭대학교성의교정)",
    "phone": "02-2258-5940",
    "priceRange": {
      "min": 0,
      "max": 0
    },
    "hasParking": true,
    "coordinates": {
      "lat": 37.500612,
      "lng": 127.0051811
    },
    "fileUrl": "/BCUser/facilitypic/1504744615382_1000000382_0.JPG"
  },
  {
    "id": "1000000308",
    "name": "좌천봉생병원장례식장",
    "category": "FUNERAL_HOME",
    "address": "부산광역시 동구 중앙대로 401 (좌천동)",
    "phone": "051-638-4411",
    "priceRange": {
      "min": 0,
      "max": 0
    },
    "hasParking": true,
    "coordinates": {
      "lat": 35.1309523,
      "lng": 129.0503957
    },
    "fileUrl": "/BCUser/facilitypic/1000000308/1556500401351.jpg"
  },
  {
    "id": "7000002268",
    "name": "대구시민전문장례식장",
    "category": "FUNERAL_HOME",
    "address": "대구광역시 북구 호국로 898 (동호동)",
    "phone": "053-324-4444",
    "priceRange": {
      "min": 0,
      "max": 0
    },
    "hasParking": true,
    "coordinates": {
      "lat": 35.960626,
      "lng": 128.557332
    },
    "fileUrl": "/BCUser/facilitypic/1574073372605_7000002268_0.jpg"
  },
  {
    "id": "7000002076",
    "name": "서해장례문화원",
    "category": "FUNERAL_HOME",
    "address": "인천광역시 강화군 강화읍 중앙로74번길 10 (남산리)",
    "phone": "032-933-4463",
    "priceRange": {
      "min": 0,
      "max": 0
    },
    "hasParking": true,
    "coordinates": {
      "lat": 37.736302,
      "lng": 126.486752
    },
    "fileUrl": "/BCUser/facilitypic/7000002076/1536993494835.jpg"
  },
  {
    "id": "1000000589",
    "name": "오산장례문화원",
    "category": "FUNERAL_HOME",
    "address": "경기도 오산시 경기동로 125 (부산동)",
    "phone": "031-375-1100",
    "priceRange": {
      "min": 0,
      "max": 0
    },
    "hasParking": true,
    "coordinates": {
      "lat": 37.1593778,
      "lng": 127.0856601
    },
    "fileUrl": "/BCUser/facilitypic/1497445120114_1000000589_0.JPG"
  },
  {
    "id": "7000000959",
    "name": "근로복지공단 태백병원장례식장",
    "category": "FUNERAL_HOME",
    "address": "강원도 태백시 보드미길 8 (장성동, 근로복지공단태백병원)",
    "phone": "033-581-4444",
    "priceRange": {
      "min": 0,
      "max": 0
    },
    "hasParking": true,
    "coordinates": {
      "lat": 37.104291,
      "lng": 129.003421
    },
    "fileUrl": "/BCUser/facilitypic/7000000959/1555484819051.jpg"
  },
  {
    "id": "1000000649",
    "name": "인제대학교상계백병원장례식장",
    "category": "FUNERAL_HOME",
    "address": "서울특별시 노원구 동일로 1342 (상계동, 상계백병원)",
    "phone": "02-938-5320",
    "priceRange": {
      "min": 0,
      "max": 0
    },
    "hasParking": true,
    "coordinates": {
      "lat": 37.6486101,
      "lng": 127.0630785
    },
    "fileUrl": "/BCUser/facilitypic/1000000649/1554360847656.png"
  },
  {
    "id": "1000000913",
    "name": "홍천군장례식장",
    "category": "FUNERAL_HOME",
    "address": "강원도 홍천군 홍천읍 느리울길 70 (하오안리)",
    "phone": "033-436-1919",
    "priceRange": {
      "min": 0,
      "max": 0
    },
    "hasParking": true,
    "coordinates": {
      "lat": 37.678681,
      "lng": 127.853175
    },
    "fileUrl": "/BCUser/facilitypic/1000000913/1555484986024.jpg"
  },
  {
    "id": "1000000770",
    "name": "천안의료원장례식장",
    "category": "FUNERAL_HOME",
    "address": "충청남도 천안시 동남구 충절로 537 (삼룡동)",
    "phone": "041-570-7099",
    "priceRange": {
      "min": 0,
      "max": 0
    },
    "hasParking": true,
    "coordinates": {
      "lat": 36.775709,
      "lng": 127.179663
    },
    "fileUrl": "/BCUser/facilitypic/1414656344047_1000000770_0.jpg"
  },
  {
    "id": "1000000854",
    "name": "한도병원장례식장",
    "category": "FUNERAL_HOME",
    "address": "경기도 안산시 단원구 선부광장로 103 (선부동)",
    "phone": "031-485-4422",
    "priceRange": {
      "min": 0,
      "max": 0
    },
    "hasParking": true,
    "coordinates": {
      "lat": 37.334018,
      "lng": 126.8076137
    },
    "fileUrl": "/BCUser/facilitypic/1749356398331.jpg"
  },
  {
    "id": "1000000440",
    "name": "부천시민장례식장",
    "category": "FUNERAL_HOME",
    "address": "경기도 부천시 원미구 장말로372번길 15 (심곡동)",
    "phone": "032-666-4440",
    "priceRange": {
      "min": 0,
      "max": 0
    },
    "hasParking": true,
    "coordinates": {
      "lat": 37.4892975,
      "lng": 126.7832874
    },
    "fileUrl": "/BCUser/facilitypic/1000000440/1556501386730.jpg"
  },
  {
    "id": "7000000799",
    "name": "안산시민장례문화원",
    "category": "FUNERAL_HOME",
    "address": "경기도 안산시 단원구 원곡공원로 11-9 (원곡동)",
    "phone": "031-495-4000",
    "priceRange": {
      "min": 0,
      "max": 0
    },
    "hasParking": true,
    "coordinates": {
      "lat": 37.3341841,
      "lng": 126.7927213
    },
    "fileUrl": "/BCUser/facilitypic/1493120504050_7000000799_0.jpg"
  },
  {
    "id": "7000002404",
    "name": "선산 국화원 전문 장례식장",
    "category": "FUNERAL_HOME",
    "address": "경상북도 구미시 선산읍 선산대로 1269 (화조리)",
    "phone": "054-481-2929",
    "priceRange": {
      "min": 0,
      "max": 0
    },
    "hasParking": true,
    "coordinates": {
      "lat": 36.228982,
      "lng": 128.307282
    },
    "fileUrl": "/BCUser/facilitypic/1601957764427_7000002404_0.jpg"
  },
  {
    "id": "7000002770",
    "name": "새로운장례식장",
    "category": "FUNERAL_HOME",
    "address": "충청북도 충주시 중심3길 5 (문화동, 새로운병원장례식장)",
    "phone": "043-853-9300",
    "priceRange": {
      "min": 0,
      "max": 0
    },
    "hasParking": true,
    "coordinates": {
      "lat": 36.973541,
      "lng": 127.925938
    },
    "fileUrl": "/BCUser/facilitypic/1708677879902.JPG"
  },
  {
    "id": "1000000228",
    "name": "동국대학교일산장례식장",
    "category": "FUNERAL_HOME",
    "address": "경기도 고양시 일산동구 동국로 27 (식사동, 동국대학교일산병원)",
    "phone": "031-961-9400",
    "priceRange": {
      "min": 0,
      "max": 0
    },
    "hasParking": true,
    "coordinates": {
      "lat": 37.6763007,
      "lng": 126.8067038
    },
    "fileUrl": "/BCUser/facilitypic/1000000228/1554278816283.jpg"
  },
  {
    "id": "1000000494",
    "name": "신화장례식장",
    "category": "FUNERAL_HOME",
    "address": "서울특별시 영등포구 영중로 100 (영등포동7가, 신화요양병원)",
    "phone": "02-2679-1122",
    "priceRange": {
      "min": 0,
      "max": 0
    },
    "hasParking": true,
    "coordinates": {
      "lat": 37.525046,
      "lng": 126.9059758
    },
    "fileUrl": "/BCUser/facilitypic/1748328017890.jpg"
  },
  {
    "id": "1000000208",
    "name": "대송장례식장",
    "category": "FUNERAL_HOME",
    "address": "전라북도 전주시 덕진구 동부대로 1015 (송천동2가)",
    "phone": "063-274-4300",
    "priceRange": {
      "min": 0,
      "max": 0
    },
    "hasParking": true,
    "coordinates": {
      "lat": 35.868753,
      "lng": 127.136402
    },
    "fileUrl": "/BCUser/facilitypic/1510708881353_1000000208_0.jpg"
  },
  {
    "id": "1000000100",
    "name": "프라임장례원",
    "category": "FUNERAL_HOME",
    "address": "부산광역시 동래구 미남로146번길 11 (온천동, 광혜병원장례식장)",
    "phone": "051-506-1022",
    "priceRange": {
      "min": 0,
      "max": 0
    },
    "hasParking": true,
    "coordinates": {
      "lat": 35.206913,
      "lng": 129.071135
    },
    "fileUrl": "/BCUser/facilitypic/1000000100/1556501276416.jpg"
  },
  {
    "id": "7000000041",
    "name": "순천향부천장례식장",
    "category": "FUNERAL_HOME",
    "address": "경기도 부천시 원미구 조마루로 170 (중동, 순천향대학교부천병원)",
    "phone": "032-327-3060",
    "priceRange": {
      "min": 0,
      "max": 0
    },
    "hasParking": true,
    "coordinates": {
      "lat": 37.498168,
      "lng": 126.762841
    },
    "fileUrl": "/BCUser/facilitypic/1471915626197_7000000041_0.jpg"
  },
  {
    "id": "7000001947",
    "name": "행복한병원장례식장",
    "category": "FUNERAL_HOME",
    "address": "경상남도 창원시 의창구 북면 천주로 785,행복한병원장례식장 (동전리, 행복한병원)",
    "phone": "055-255-0220",
    "priceRange": {
      "min": 0,
      "max": 0
    },
    "hasParking": true,
    "coordinates": {
      "lat": 35.323461,
      "lng": 128.601631
    },
    "fileUrl": "/BCUser/facilitypic/7000001947/1536989691235.jpg"
  },
  {
    "id": "7000001627",
    "name": "고성제일요양병원장례식장",
    "category": "FUNERAL_HOME",
    "address": "경상남도 고성군 고성읍 남해안대로 2514 (율대리)",
    "phone": "055-804-8400",
    "priceRange": {
      "min": 0,
      "max": 0
    },
    "hasParking": true,
    "coordinates": {
      "lat": 34.968248,
      "lng": 128.335731
    },
    "fileUrl": "/BCUser/facilitypic/7000001627/1560313940963.jpg"
  },
  {
    "id": "7000001087",
    "name": "(주)장례식장아시아드 ",
    "category": "FUNERAL_HOME",
    "address": "부산광역시 동래구 여고로 42 (사직동)",
    "phone": "051-503-0770",
    "priceRange": {
      "min": 0,
      "max": 0
    },
    "hasParking": true,
    "coordinates": {
      "lat": 35.1953616,
      "lng": 129.0685563
    },
    "fileUrl": "/BCUser/facilitypic/1465798299672_7000001087_0.JPG"
  },
  {
    "id": "1000000405",
    "name": "성가롤로병원장례식장",
    "category": "FUNERAL_HOME",
    "address": "전라남도 순천시 순광로 221 (조례동, 성가롤로병원)",
    "phone": "061-900-4444",
    "priceRange": {
      "min": 0,
      "max": 0
    },
    "hasParking": true,
    "coordinates": {
      "lat": 34.964416,
      "lng": 127.541476
    },
    "fileUrl": "/BCUser/facilitypic/1409815921657_1000000405_0.jpg"
  },
  {
    "id": "1000000561",
    "name": "영등포장례식장",
    "category": "FUNERAL_HOME",
    "address": "서울특별시 영등포구 당산로31길 6 (당산동3가, 영등포병원)",
    "phone": "02-2679-4444",
    "priceRange": {
      "min": 0,
      "max": 0
    },
    "hasParking": true,
    "coordinates": {
      "lat": 37.5268013,
      "lng": 126.8959163
    },
    "fileUrl": "/BCUser/facilitypic/1487232765099_1000000561_0.jpg"
  },
  {
    "id": "7000001194",
    "name": "나눔병원장례식장",
    "category": "FUNERAL_HOME",
    "address": "경기도 남양주시 오남읍 진건오남로797번길 9 (양지리, 우리병원)",
    "phone": "031-574-4442",
    "priceRange": {
      "min": 0,
      "max": 0
    },
    "hasParking": true,
    "coordinates": {
      "lat": 37.698,
      "lng": 127.201372
    },
    "fileUrl": "/BCUser/facilitypic/1624424009223.jpg"
  },
  {
    "id": "7000002285",
    "name": "쉴낙원 경기장례식장",
    "category": "FUNERAL_HOME",
    "address": "경기도 용인시 수지구 포은대로 836 (죽전동, 용인쉴낙원)",
    "phone": "031-672-1009",
    "priceRange": {
      "min": 0,
      "max": 0
    },
    "hasParking": true,
    "coordinates": {
      "lat": 37.327929,
      "lng": 127.139553
    },
    "fileUrl": "/BCUser/facilitypic/1577976452587_7000002285_0.PNG"
  },
  {
    "id": "7000002775",
    "name": "보람세민에스장례식장",
    "category": "FUNERAL_HOME",
    "address": "울산광역시 중구 내황4길 11보람세민에스장례식장 (반구동)",
    "phone": "052-285-3905",
    "priceRange": {
      "min": 0,
      "max": 0
    },
    "hasParking": true,
    "coordinates": {
      "lat": 35.552776,
      "lng": 129.341679
    },
    "fileUrl": "/BCUser/facilitypic/7000002775/1710751695760.jpg"
  },
  {
    "id": "7000002406",
    "name": "국제성모장례식장",
    "category": "FUNERAL_HOME",
    "address": "인천광역시 서구 심곡로100번길 25 (심곡동, 인천국제성모병원)",
    "phone": "032-290-3501",
    "priceRange": {
      "min": 0,
      "max": 0
    },
    "hasParking": true,
    "coordinates": {
      "lat": 37.542691,
      "lng": 126.684109
    },
    "fileUrl": "/BCUser/facilitypic/1614067203119.jpg"
  },
  {
    "id": "1000000050",
    "name": "경남요양병원장례식장",
    "category": "FUNERAL_HOME",
    "address": "경상남도 창녕군 남지읍 남지중앙로 45 (남지리)",
    "phone": "055-526-2575",
    "priceRange": {
      "min": 0,
      "max": 0
    },
    "hasParking": true,
    "coordinates": {
      "lat": 35.391256,
      "lng": 128.474957
    },
    "fileUrl": "/BCUser/facilitypic/1000000050/1554863977789.png"
  },
  {
    "id": "1000000847",
    "name": "한강성심병원장례식장",
    "category": "FUNERAL_HOME",
    "address": "서울특별시 영등포구 국회대로56길 18,한강성심병원5별관지하1층 (영등포동7가, 한강성심병원)",
    "phone": "02-2633-4455",
    "priceRange": {
      "min": 0,
      "max": 0
    },
    "hasParking": true,
    "coordinates": {
      "lat": 37.523134,
      "lng": 126.9096815
    },
    "fileUrl": "/BCUser/facilitypic/1650171561910.jpg"
  },
  {
    "id": "7000001472",
    "name": "구미가톨릭요양병원장례식장",
    "category": "FUNERAL_HOME",
    "address": "경상북도 구미시 야은로 483 (도량동)",
    "phone": "054-442-2323",
    "priceRange": {
      "min": 0,
      "max": 0
    },
    "hasParking": true,
    "coordinates": {
      "lat": 36.1348639,
      "lng": 128.335575
    },
    "fileUrl": "/BCUser/facilitypic/1702274208466.jpg"
  },
  {
    "id": "7000002536",
    "name": "금사장례식장",
    "category": "FUNERAL_HOME",
    "address": "부산광역시 금정구 반송로 470 (금사동)",
    "phone": "051-977-4445",
    "priceRange": {
      "min": 0,
      "max": 0
    },
    "hasParking": true,
    "coordinates": {
      "lat": 35.215552,
      "lng": 129.115238
    },
    "fileUrl": "/BCUser/facilitypic/1620701356045.jpg"
  },
  {
    "id": "1000000287",
    "name": "서울좋은병원장례식장",
    "category": "FUNERAL_HOME",
    "address": "서울특별시 강북구 도봉로 114 (미아동)",
    "phone": "02-984-5000",
    "priceRange": {
      "min": 0,
      "max": 0
    },
    "hasParking": true,
    "coordinates": {
      "lat": 37.6192633,
      "lng": 127.0293815
    },
    "fileUrl": "/BCUser/facilitypic/1000000287/1554355106082.png"
  },
  {
    "id": "1000000181",
    "name": "뉴타운장례식장",
    "category": "FUNERAL_HOME",
    "address": "서울특별시 성북구 종암로 199 (하월곡동)",
    "phone": "02-909-4444",
    "priceRange": {
      "min": 0,
      "max": 0
    },
    "hasParking": true,
    "coordinates": {
      "lat": 37.6075681,
      "lng": 127.0303943
    },
    "fileUrl": "/BCUser/facilitypic/1000000181/1554353700112.png"
  },
  {
    "id": "1000000211",
    "name": "대전장례식장",
    "category": "FUNERAL_HOME",
    "address": "대전광역시 서구 갑천도시고속도로 1895 (월평동)",
    "phone": "042-522-4444",
    "priceRange": {
      "min": 0,
      "max": 0
    },
    "hasParking": true,
    "coordinates": {
      "lat": 36.3495373,
      "lng": 127.3513637
    },
    "fileUrl": "/BCUser/facilitypic/1000000211/1559105955018.jpg"
  },
  {
    "id": "7000002368",
    "name": "연세대학교 용인장례식장",
    "category": "FUNERAL_HOME",
    "address": "경기도 용인시 기흥구 동백죽전대로 363 (중동)",
    "phone": "031-678-7600",
    "priceRange": {
      "min": 0,
      "max": 0
    },
    "hasParking": true,
    "coordinates": {
      "lat": 37.270588,
      "lng": 127.144385
    },
    "fileUrl": "/BCUser/facilitypic/1583188917826_7000002368_0.png"
  },
  {
    "id": "1000000747",
    "name": "중앙U병원장례식장",
    "category": "FUNERAL_HOME",
    "address": "부산광역시 사하구 감천로 59 (감천동)",
    "phone": "051-201-0468",
    "priceRange": {
      "min": 0,
      "max": 0
    },
    "hasParking": true,
    "coordinates": {
      "lat": 35.0904694,
      "lng": 128.9991419
    },
    "fileUrl": "/BCUser/facilitypic/1000000747/1563429784838.jpg"
  },
  {
    "id": "1000000388",
    "name": "서울적십자병원장례식장",
    "category": "FUNERAL_HOME",
    "address": "서울특별시 종로구 새문안로 9 (평동, 적십자병원)",
    "phone": "02-2002-8444",
    "priceRange": {
      "min": 0,
      "max": 0
    },
    "hasParking": true,
    "coordinates": {
      "lat": 37.5671402,
      "lng": 126.9670566
    },
    "fileUrl": "/BCUser/facilitypic/1000000388/1554356063658.png"
  },
  {
    "id": "1000000381",
    "name": "복지장례문화원",
    "category": "FUNERAL_HOME",
    "address": "서울특별시 영등포구 도림로 142 (대림동)",
    "phone": "02-846-4444",
    "priceRange": {
      "min": 0,
      "max": 0
    },
    "hasParking": true,
    "coordinates": {
      "lat": 37.493197,
      "lng": 126.897887
    },
    "fileUrl": "/BCUser/facilitypic/1756704557299.png"
  },
  {
    "id": "7000002539",
    "name": "창원한마음병원장례식장",
    "category": "FUNERAL_HOME",
    "address": "경상남도 창원시 의창구 용동로57번길 8 (사림동, 창원한마음병원)",
    "phone": "055-225-1200",
    "priceRange": {
      "min": 0,
      "max": 0
    },
    "hasParking": true,
    "coordinates": {
      "lat": 35.238131,
      "lng": 128.699081
    },
    "fileUrl": "/BCUser/facilitypic/1668992928899.jpg"
  },
  {
    "id": "7000001466",
    "name": "세광병원장례식장",
    "category": "FUNERAL_HOME",
    "address": "경상남도 창원시 진해구 중원동로 55-1 (중앙동, 진해세광병원)",
    "phone": "055-545-4447",
    "priceRange": {
      "min": 0,
      "max": 0
    },
    "hasParking": true,
    "coordinates": {
      "lat": 35.149656,
      "lng": 128.661093
    },
    "fileUrl": "/BCUser/facilitypic/7000001466/1563522991779.jpg"
  },
  {
    "id": "1000000799",
    "name": "충주의료원장례식장",
    "category": "FUNERAL_HOME",
    "address": "충청북도 충주시 안림로 239-50 (안림동)",
    "phone": "043-871-0444",
    "priceRange": {
      "min": 0,
      "max": 0
    },
    "hasParking": true,
    "coordinates": {
      "lat": 36.97961,
      "lng": 127.970448
    },
    "fileUrl": "/BCUser/facilitypic/1000000799/1554265080366.png"
  },
  {
    "id": "1000000133",
    "name": "금강장례식장",
    "category": "FUNERAL_HOME",
    "address": "충청남도 부여군 부여읍 백제문화로429번길 9 (자왕리)",
    "phone": "041-834-0100",
    "priceRange": {
      "min": 0,
      "max": 0
    },
    "hasParking": true,
    "coordinates": {
      "lat": 36.3119823,
      "lng": 126.9509097
    },
    "fileUrl": "/BCUser/facilitypic/1000000133/1563430507149.jpg"
  },
  {
    "id": "1000000458",
    "name": "BHS한서병원장례식장",
    "category": "FUNERAL_HOME",
    "address": "부산광역시 수영구 수영로 615 (광안동)",
    "phone": "051-751-1860",
    "priceRange": {
      "min": 0,
      "max": 0
    },
    "hasParking": true,
    "coordinates": {
      "lat": 35.1608916,
      "lng": 129.1131305
    },
    "fileUrl": "/BCUser/facilitypic/1000000458/1563432335521.jpg"
  },
  {
    "id": "1000000317",
    "name": "부산보훈병원장례식장",
    "category": "FUNERAL_HOME",
    "address": "부산광역시 사상구 백양대로 420 (주례동, 부산보훈병원)",
    "phone": "051-601-6785",
    "priceRange": {
      "min": 0,
      "max": 0
    },
    "hasParking": true,
    "coordinates": {
      "lat": 35.153325,
      "lng": 129.008242
    },
    "fileUrl": "/BCUser/facilitypic/1000000317/1560220913760.jpg"
  },
  {
    "id": "7000002946",
    "name": "대명휴장례식장",
    "category": "FUNERAL_HOME",
    "address": "대구광역시 남구 대명로 86 지하1층 대명휴장례식장(대명동)",
    "phone": "053-472-0001",
    "priceRange": {
      "min": 0,
      "max": 0
    },
    "hasParking": true,
    "coordinates": {
      "lat": null,
      "lng": null
    },
    "fileUrl": "/BCUser/facilitypic/7000002946/1758780605407.jpg"
  },
  {
    "id": "7000002710",
    "name": "원당장례식장(주)고양베스트",
    "category": "FUNERAL_HOME",
    "address": "경기도 고양시 덕양구 고양대로 1359-5 (성사동)",
    "phone": "031-965-4444",
    "priceRange": {
      "min": 0,
      "max": 0
    },
    "hasParking": true,
    "coordinates": {
      "lat": 37.655291,
      "lng": 126.835554
    },
    "fileUrl": "/BCUser/facilitypic/7000002710/1709688362757.PNG"
  },
  {
    "id": "7000002140",
    "name": "쉴낙원 홍천장례문화원",
    "category": "FUNERAL_HOME",
    "address": "강원도 홍천군 홍천읍 설악로 2374 (와동리)",
    "phone": "033-434-7788",
    "priceRange": {
      "min": 0,
      "max": 0
    },
    "hasParking": true,
    "coordinates": {
      "lat": 37.727841,
      "lng": 127.936486
    },
    "fileUrl": "/BCUser/facilitypic/7000002140/1564473586658.jpg"
  },
  {
    "id": "7000001429",
    "name": "다대수병원장례식장",
    "category": "FUNERAL_HOME",
    "address": "부산광역시 사하구 다대로 565 (다대동)",
    "phone": "051-264-3535",
    "priceRange": {
      "min": 0,
      "max": 0
    },
    "hasParking": true,
    "coordinates": {
      "lat": 35.0558972,
      "lng": 128.9709128
    },
    "fileUrl": "/BCUser/facilitypic/1516251784608_7000001429_0.jpg"
  },
  {
    "id": "7000001294",
    "name": "제일장례식장",
    "category": "FUNERAL_HOME",
    "address": "경기도 평택시 삼봉로 30 (독곡동)",
    "phone": "031-611-1144",
    "priceRange": {
      "min": 0,
      "max": 0
    },
    "hasParking": true,
    "coordinates": {
      "lat": 37.089443,
      "lng": 127.067048
    },
    "fileUrl": "/BCUser/facilitypic/7000001294/1563436470453.jpg"
  },
  {
    "id": "7000000590",
    "name": "창원시립상복공원장례식장",
    "category": "FUNERAL_HOME",
    "address": "경상남도 창원시 성산구 공단로474번길 160 (상복동)",
    "phone": "055-712-0930",
    "priceRange": {
      "min": 0,
      "max": 0
    },
    "hasParking": true,
    "coordinates": {
      "lat": 35.193277,
      "lng": 128.661143
    },
    "fileUrl": "/BCUser/facilitypic/1346738491083_7000000590_0.jpg"
  },
  {
    "id": "7000000267",
    "name": "한성병원장례식장",
    "category": "FUNERAL_HOME",
    "address": "경상남도 창녕군 창녕읍 교리1길 2 (교리)",
    "phone": "055-532-1532",
    "priceRange": {
      "min": 0,
      "max": 0
    },
    "hasParking": true,
    "coordinates": {
      "lat": 35.5421395,
      "lng": 128.4933873
    },
    "fileUrl": "/BCUser/facilitypic/7000000267/1559107383200.png"
  },
  {
    "id": "7000000834",
    "name": "인천성모장례식장",
    "category": "FUNERAL_HOME",
    "address": "인천광역시 부평구 동수로 56 (부평동, 가톨릭대학교인천성모병원)",
    "phone": "032-517-0710",
    "priceRange": {
      "min": 0,
      "max": 0
    },
    "hasParking": true,
    "coordinates": {
      "lat": 37.484193,
      "lng": 126.724912
    },
    "fileUrl": "/BCUser/facilitypic/1612338349177.jpg"
  },
  {
    "id": "7000002888",
    "name": "금강장례식장",
    "category": "FUNERAL_HOME",
    "address": "인천광역시 미추홀구 인주대로 452 (주안동, 금강요양병원,새한장례식장)",
    "phone": "032-432-4444",
    "priceRange": {
      "min": 0,
      "max": 0
    },
    "hasParking": true,
    "coordinates": {
      "lat": null,
      "lng": null
    },
    "fileUrl": "/BCUser/facilitypic/1748589638893.jpg"
  },
  {
    "id": "1000000704",
    "name": "조선대학교병원장례식장",
    "category": "FUNERAL_HOME",
    "address": "광주광역시 동구 필문대로 365 (서석동)",
    "phone": "062-220-3352",
    "priceRange": {
      "min": 0,
      "max": 0
    },
    "hasParking": true,
    "coordinates": {
      "lat": 35.13999,
      "lng": 126.924304
    },
    "fileUrl": "/BCUser/facilitypic/1325136950826_1000000704_0.jpg"
  },
  {
    "id": "1000000400",
    "name": "시티병원장례식장",
    "category": "FUNERAL_HOME",
    "address": "경기도 의왕시 오전천로 29 (오전동)",
    "phone": "031-459-7575",
    "priceRange": {
      "min": 0,
      "max": 0
    },
    "hasParking": true,
    "coordinates": {
      "lat": 37.350239,
      "lng": 126.976768
    },
    "fileUrl": "/BCUser/facilitypic/1561531013613_1000000400_0.jpg"
  },
  {
    "id": "1000000259",
    "name": "메리놀병원장례식장",
    "category": "FUNERAL_HOME",
    "address": "부산광역시 중구 중구로 121 (대청동4가)",
    "phone": "051-465-1024",
    "priceRange": {
      "min": 0,
      "max": 0
    },
    "hasParking": true,
    "coordinates": {
      "lat": 35.1073029,
      "lng": 129.0323992
    },
    "fileUrl": "/BCUser/facilitypic/1395623810039_1000000259_0.JPG"
  },
  {
    "id": "7000002615",
    "name": "중앙대학교광명병원장례식장",
    "category": "FUNERAL_HOME",
    "address": "경기도 광명시 덕안로 110, 중앙대학교 광명병원 B2층 (일직동)",
    "phone": "02-2610-9472",
    "priceRange": {
      "min": 0,
      "max": 0
    },
    "hasParking": true,
    "coordinates": {
      "lat": 37.424202,
      "lng": 126.886023
    },
    "fileUrl": "/BCUser/facilitypic/1652253093543.jpg"
  },
  {
    "id": "1000000517",
    "name": "안중장례문화센타",
    "category": "FUNERAL_HOME",
    "address": "경기도 평택시 안중읍 서동대로 1931-11 (금곡리, 안중백병원)",
    "phone": "031-683-4440",
    "priceRange": {
      "min": 0,
      "max": 0
    },
    "hasParking": true,
    "coordinates": {
      "lat": 37.0030539,
      "lng": 126.9582448
    },
    "fileUrl": "/BCUser/facilitypic/1538371801759_1000000517_0.jpg"
  },
  {
    "id": "1000000378",
    "name": "제천서울병원장례식장",
    "category": "FUNERAL_HOME",
    "address": "충청북도 제천시 숭문로 57 (서부동, 서울병원)",
    "phone": "043-644-4422",
    "priceRange": {
      "min": 0,
      "max": 0
    },
    "hasParking": true,
    "coordinates": {
      "lat": 37.138819,
      "lng": 128.206353
    },
    "fileUrl": "/BCUser/facilitypic/1564450453866_1000000378_0.jpg"
  },
  {
    "id": "1000000074",
    "name": "고령영생병원장례식장",
    "category": "FUNERAL_HOME",
    "address": "경상북도 고령군 대가야읍 중앙로 33 (헌문리, 영생병원)",
    "phone": "054-956-4455",
    "priceRange": {
      "min": 0,
      "max": 0
    },
    "hasParking": true,
    "coordinates": {
      "lat": 35.730172,
      "lng": 128.272201
    },
    "fileUrl": "/BCUser/facilitypic/1000000074/1563948412077.jpg"
  },
  {
    "id": "1000000835",
    "name": "하나장례식장",
    "category": "FUNERAL_HOME",
    "address": "충청북도 청주시 서원구 대림로 431 (죽림동)",
    "phone": "043-270-8400",
    "priceRange": {
      "min": 0,
      "max": 0
    },
    "hasParking": true,
    "coordinates": {
      "lat": 36.610257,
      "lng": 127.440893
    },
    "fileUrl": "/BCUser/facilitypic/1478500533654_1000000835_0.gif"
  },
  {
    "id": "7000000611",
    "name": "늘푸른장례식장",
    "category": "FUNERAL_HOME",
    "address": "경상남도 창원시 진해구 충장로 181 (여좌동)",
    "phone": "055-551-8000",
    "priceRange": {
      "min": 0,
      "max": 0
    },
    "hasParking": true,
    "coordinates": {
      "lat": 35.1528061,
      "lng": 128.6718707
    },
    "fileUrl": "/BCUser/facilitypic/7000000611/1554962234498.jpg"
  },
  {
    "id": "7000001559",
    "name": "김해시민장례식장",
    "category": "FUNERAL_HOME",
    "address": "경상남도 김해시 금관대로910번길 4 (풍유동)",
    "phone": "055-900-4000",
    "priceRange": {
      "min": 0,
      "max": 0
    },
    "hasParking": true,
    "coordinates": {
      "lat": 35.208705,
      "lng": 128.845321
    },
    "fileUrl": "/BCUser/facilitypic/7000001559/1560314295354.jpg"
  },
  {
    "id": "7000002144",
    "name": "엠지(MG)새마을금고 장례식장",
    "category": "FUNERAL_HOME",
    "address": "전라북도 남원시 요천로 1237 (조산동, 장례식장)",
    "phone": "063-636-4141",
    "priceRange": {
      "min": 0,
      "max": 0
    },
    "hasParking": true,
    "coordinates": {
      "lat": 35.396833,
      "lng": 127.358898
    },
    "fileUrl": "/BCUser/facilitypic/1544166428894_7000002144_0.jpg"
  },
  {
    "id": "7000000194",
    "name": "우주장례식장",
    "category": "FUNERAL_HOME",
    "address": "전라남도 고흥군 고흥읍 봉동주공길 56-16 (호형리)",
    "phone": "061-832-4000",
    "priceRange": {
      "min": 0,
      "max": 0
    },
    "hasParking": true,
    "coordinates": {
      "lat": 34.604041,
      "lng": 127.2910076
    },
    "fileUrl": "/BCUser/facilitypic/7000000194/1555305753676.jpg"
  },
  {
    "id": "1000000386",
    "name": "서울특별시 서울의료원 장례식장",
    "category": "FUNERAL_HOME",
    "address": "서울특별시 중랑구 신내로 156후문 (장례식장) ",
    "phone": "02-2276-7671",
    "priceRange": {
      "min": 0,
      "max": 0
    },
    "hasParking": true,
    "coordinates": {
      "lat": 37.613036,
      "lng": 127.0984134
    },
    "fileUrl": "/BCUser/facilitypic/1663293920700.jpg"
  },
  {
    "id": "1000000707",
    "name": "웅상중앙병원장례식장",
    "category": "FUNERAL_HOME",
    "address": "경상남도 양산시 서창로 59 (명동)",
    "phone": "055-912-4440",
    "priceRange": {
      "min": 0,
      "max": 0
    },
    "hasParking": true,
    "coordinates": {
      "lat": 35.4063743,
      "lng": 129.1645487
    },
    "fileUrl": "/BCUser/facilitypic/1000000707/1563435466377.jpg"
  },
  {
    "id": "1000000214",
    "name": "대한병원장례식장",
    "category": "FUNERAL_HOME",
    "address": "서울특별시 강북구 도봉로 301 (수유동)",
    "phone": "02-992-4444",
    "priceRange": {
      "min": 0,
      "max": 0
    },
    "hasParking": true,
    "coordinates": {
      "lat": 37.6353498,
      "lng": 127.0228853
    },
    "fileUrl": "/BCUser/facilitypic/1000000214/1554355819220.png"
  },
  {
    "id": "7000002080",
    "name": "오산한국병원장례식장",
    "category": "FUNERAL_HOME",
    "address": "경기도 오산시 밀머리로1번길 16 (원동, 오산한국병원)",
    "phone": "031-375-7600",
    "priceRange": {
      "min": 0,
      "max": 0
    },
    "hasParking": true,
    "coordinates": {
      "lat": 37.141103,
      "lng": 127.075215
    },
    "fileUrl": "/BCUser/facilitypic/1533860053737_7000002080_0.jpg"
  },
  {
    "id": "7000002047",
    "name": "(주)서원 바른장례식장",
    "category": "FUNERAL_HOME",
    "address": "강원도 원주시 판부면 치악로 1133 (금대리)",
    "phone": "033-735-4444",
    "priceRange": {
      "min": 0,
      "max": 0
    },
    "hasParking": true,
    "coordinates": {
      "lat": 37.293311,
      "lng": 127.991066
    },
    "fileUrl": "/BCUser/facilitypic/1660186270859.png"
  },
  {
    "id": "7000001946",
    "name": "효사랑장례문화원",
    "category": "FUNERAL_HOME",
    "address": "전라북도 전주시 완산구 용머리로 77 (효자동1가, 효사랑가족요양병원)",
    "phone": "063-250-4444",
    "priceRange": {
      "min": 0,
      "max": 0
    },
    "hasParking": true,
    "coordinates": {
      "lat": 35.8067071,
      "lng": 127.1188362
    },
    "fileUrl": "/BCUser/facilitypic/1525315028886_7000001946_0.JPG"
  },
  {
    "id": "7000000458",
    "name": "칠곡경북대학교병원장례식장",
    "category": "FUNERAL_HOME",
    "address": "대구광역시 북구 호국로 807 (학정동)",
    "phone": "053-200-2500",
    "priceRange": {
      "min": 0,
      "max": 0
    },
    "hasParking": true,
    "coordinates": {
      "lat": 35.957103,
      "lng": 128.565303
    },
    "fileUrl": "/BCUser/facilitypic/1734419749258.jpg"
  },
  {
    "id": "7000000962",
    "name": "(주)수요양병원장례식장",
    "category": "FUNERAL_HOME",
    "address": "부산광역시 부산진구 동평로 401,지하1층,지하2층 (양정동)",
    "phone": "051-853-1024",
    "priceRange": {
      "min": 0,
      "max": 0
    },
    "hasParking": true,
    "coordinates": {
      "lat": 35.174419,
      "lng": 129.068751
    },
    "fileUrl": "/BCUser/facilitypic/7000000962/1556524775629.jpg"
  },
  {
    "id": "7000000335",
    "name": "한사랑병원장례문화센타",
    "category": "FUNERAL_HOME",
    "address": "경기도 안산시 상록구 광덕1로 345 (이동)",
    "phone": "031-439-4444",
    "priceRange": {
      "min": 0,
      "max": 0
    },
    "hasParking": true,
    "coordinates": {
      "lat": 37.3070689,
      "lng": 126.8484422
    },
    "fileUrl": "/BCUser/facilitypic/1514964732108_7000000335_0.jpg"
  },
  {
    "id": "1000000165",
    "name": "남원의료원장례식장",
    "category": "FUNERAL_HOME",
    "address": "전북특별자치도 남원시 충정로 365 (고죽동)",
    "phone": "063-620-1140",
    "priceRange": {
      "min": 0,
      "max": 0
    },
    "hasParking": true,
    "coordinates": {
      "lat": 35.4326296,
      "lng": 127.4083857
    },
    "fileUrl": "/BCUser/facilitypic/1715570843271.jpg"
  },
  {
    "id": "1000000210",
    "name": "대전보훈병원장례식장",
    "category": "FUNERAL_HOME",
    "address": "대전광역시 대덕구 대청로82번길 147 (신탄진동)",
    "phone": "042-933-4446",
    "priceRange": {
      "min": 0,
      "max": 0
    },
    "hasParking": true,
    "coordinates": {
      "lat": 36.445962,
      "lng": 127.439844
    },
    "fileUrl": "/BCUser/facilitypic/1629167279170.jpg"
  },
  {
    "id": "1000000816",
    "name": "창원파티마병원장례식장",
    "category": "FUNERAL_HOME",
    "address": "경상남도 창원시 의창구 창이대로 45 (명서동)",
    "phone": "055-270-1900",
    "priceRange": {
      "min": 0,
      "max": 0
    },
    "hasParking": true,
    "coordinates": {
      "lat": 35.237238,
      "lng": 128.645851
    },
    "fileUrl": "/BCUser/facilitypic/1327022117287_1000000816_0.jpg"
  },
  {
    "id": "7000002030",
    "name": "아산유리요양병원 장례식장",
    "category": "FUNERAL_HOME",
    "address": "충청남도 아산시 도고면 도고면로 179,아산유리요양병원 (기곡리)",
    "phone": "041-549-1044",
    "priceRange": {
      "min": 0,
      "max": 0
    },
    "hasParking": true,
    "coordinates": {
      "lat": 36.763299,
      "lng": 126.882738
    },
    "fileUrl": "/BCUser/facilitypic/7000002030/1536989871993.jpg"
  },
  {
    "id": "1000000920",
    "name": "화천군공설장례식장",
    "category": "FUNERAL_HOME",
    "address": "강원특별자치도 화천군 하남면 영서로 5697-66 (원천리, 화천장례식장)",
    "phone": "033-442-0452",
    "priceRange": {
      "min": 0,
      "max": 0
    },
    "hasParking": true,
    "coordinates": {
      "lat": 38.069954,
      "lng": 127.67968
    },
    "fileUrl": "/BCUser/facilitypic/1000000920/1554272543148.jpg"
  },
  {
    "id": "7000002470",
    "name": "함안하늘공원장례식장",
    "category": "FUNERAL_HOME",
    "address": "경상남도 함안군 가야읍 함마대로 1145 (사내리, 함안하늘공원)",
    "phone": "055-585-7180",
    "priceRange": {
      "min": 0,
      "max": 0
    },
    "hasParking": true,
    "coordinates": {
      "lat": 35.27703,
      "lng": 128.367719
    },
    "fileUrl": "/BCUser/facilitypic/1613177247962.jpg"
  },
  {
    "id": "7000002638",
    "name": "아너스힐병원장례식장",
    "category": "FUNERAL_HOME",
    "address": "경기도 김포시 통진읍 흥신로 320-10 (도사리, 제이에스병원)",
    "phone": "031-989-4404",
    "priceRange": {
      "min": 0,
      "max": 0
    },
    "hasParking": true,
    "coordinates": {
      "lat": 37.683794,
      "lng": 126.608486
    },
    "fileUrl": "/BCUser/facilitypic/1684899297535.jpg"
  },
  {
    "id": "7000002624",
    "name": "함안시민장례식장",
    "category": "FUNERAL_HOME",
    "address": "경상남도 함안군 산인면 학산2길 17-50 (송정리)",
    "phone": "055-785-4444",
    "priceRange": {
      "min": 0,
      "max": 0
    },
    "hasParking": true,
    "coordinates": {
      "lat": 35.274364,
      "lng": 128.431744
    },
    "fileUrl": "/BCUser/facilitypic/1651564165267.jpg"
  },
  {
    "id": "7000000237",
    "name": "안산온누리병원장례식장",
    "category": "FUNERAL_HOME",
    "address": "경기도 안산시 단원구 선부로 201 (선부동)",
    "phone": "031-487-4444",
    "priceRange": {
      "min": 0,
      "max": 0
    },
    "hasParking": true,
    "coordinates": {
      "lat": 37.3418275,
      "lng": 126.8174982
    },
    "fileUrl": "/BCUser/facilitypic/7000000237/1559115124840.png"
  },
  {
    "id": "1000000661",
    "name": "일산복음병원장례식장",
    "category": "FUNERAL_HOME",
    "address": "경기도 고양시 일산동구 고양대로 760, 나동 B1층 (중산동, 일산복음병원)",
    "phone": "031-977-6000",
    "priceRange": {
      "min": 0,
      "max": 0
    },
    "hasParking": true,
    "coordinates": {
      "lat": 37.6817198,
      "lng": 126.7799777
    },
    "fileUrl": "/BCUser/facilitypic/1000000661/1555901493699.jpg"
  },
  {
    "id": "1000000254",
    "name": "경상남도 마산의료원 장례식장",
    "category": "FUNERAL_HOME",
    "address": "경상남도 창원시 마산합포구 3.15대로 231 (마산의료원 장례식장) ",
    "phone": "055-249-1700",
    "priceRange": {
      "min": 0,
      "max": 0
    },
    "hasParking": true,
    "coordinates": {
      "lat": 35.198613,
      "lng": 128.566315
    },
    "fileUrl": "/BCUser/facilitypic/1000000254/1554268371919.jpg"
  },
  {
    "id": "7000002206",
    "name": "계명대학교대구동산병원장례식장",
    "category": "FUNERAL_HOME",
    "address": "대구광역시 중구 달성로 56 (동산동, 계명대학교동산의료원)",
    "phone": "053-250-8451",
    "priceRange": {
      "min": 0,
      "max": 0
    },
    "hasParking": true,
    "coordinates": {
      "lat": 35.868371,
      "lng": 128.582957
    },
    "fileUrl": "/BCUser/facilitypic/7000002206/1555306275605.jpg"
  },
  {
    "id": "7000002118",
    "name": "순천향천안장례식장",
    "category": "FUNERAL_HOME",
    "address": "충청남도 천안시 동남구 순천향6길 30 (봉명동, 순천향대학교천안병원)",
    "phone": "041-570-2444",
    "priceRange": {
      "min": 0,
      "max": 0
    },
    "hasParking": true,
    "coordinates": {
      "lat": 36.802394,
      "lng": 127.134495
    },
    "fileUrl": "/BCUser/facilitypic/7000002118/1555985078902.jpg"
  },
  {
    "id": "7000002002",
    "name": "양서농협장례문화원",
    "category": "FUNERAL_HOME",
    "address": "경기도 양평군 양서면 두물머리길 24 (양수리)",
    "phone": "031-771-1900",
    "priceRange": {
      "min": 0,
      "max": 0
    },
    "hasParking": true,
    "coordinates": {
      "lat": 37.5420948,
      "lng": 127.3185492
    },
    "fileUrl": "/BCUser/facilitypic/1571289288730_7000002002_0.png"
  },
  {
    "id": "1000000911",
    "name": "홍익병원장례식장",
    "category": "FUNERAL_HOME",
    "address": "서울특별시 양천구 등촌로 22 (목동)",
    "phone": "02-2600-1444",
    "priceRange": {
      "min": 0,
      "max": 0
    },
    "hasParking": true,
    "coordinates": {
      "lat": 37.5319114,
      "lng": 126.8641205
    },
    "fileUrl": "/BCUser/facilitypic/1000000911/1554358480196.png"
  },
  {
    "id": "7000002584",
    "name": "창녕전문장례식장",
    "category": "FUNERAL_HOME",
    "address": "경상남도 창녕군 창녕읍 창녕대로 120 (탐하리)",
    "phone": "055-532-4445",
    "priceRange": {
      "min": 0,
      "max": 0
    },
    "hasParking": true,
    "coordinates": {
      "lat": 35.534009,
      "lng": 128.497388
    },
    "fileUrl": "/BCUser/facilitypic/1636967520270.jpg"
  },
  {
    "id": "1000000277",
    "name": "백년장례문화원",
    "category": "FUNERAL_HOME",
    "address": "경기도 남양주시 마치로 90 (호평동)",
    "phone": "031-594-4444",
    "priceRange": {
      "min": 0,
      "max": 0
    },
    "hasParking": true,
    "coordinates": {
      "lat": 37.6529532,
      "lng": 127.2618371
    },
    "fileUrl": "/BCUser/facilitypic/1708674707360.jpeg"
  },
  {
    "id": "7000001129",
    "name": "구미장례식장해원",
    "category": "FUNERAL_HOME",
    "address": "경상북도 구미시 야은로 119 (부곡동)",
    "phone": "054-443-5445",
    "priceRange": {
      "min": 0,
      "max": 0
    },
    "hasParking": true,
    "coordinates": {
      "lat": 36.146345,
      "lng": 128.297531
    },
    "fileUrl": "/BCUser/facilitypic/7000001129/1563948957409.jpg"
  },
  {
    "id": "7000000641",
    "name": "정토사 극락원",
    "category": "FUNERAL_HOME",
    "address": "울산광역시 남구 문수로217번길 15 (옥동, 정토사)",
    "phone": "052-212-7000",
    "priceRange": {
      "min": 0,
      "max": 0
    },
    "hasParking": true,
    "coordinates": {
      "lat": 35.5402641,
      "lng": 129.2770917
    },
    "fileUrl": "/BCUser/facilitypic/1483083051035_7000000641_0.JPG"
  },
  {
    "id": "7000000467",
    "name": "메디힐장례식장",
    "category": "FUNERAL_HOME",
    "address": "경기도 포천시 신북면 청신로 2139 (기저리)",
    "phone": "031-534-4401",
    "priceRange": {
      "min": 0,
      "max": 0
    },
    "hasParking": true,
    "coordinates": {
      "lat": 37.934891,
      "lng": 127.226171
    },
    "fileUrl": "/BCUser/facilitypic/7000000467/1563434417268.png"
  },
  {
    "id": "1000000632",
    "name": "원주의료원장례식장",
    "category": "FUNERAL_HOME",
    "address": "강원특별자치도 원주시 서원대로 387 (개운동, 강원도원주의료원)",
    "phone": "033-760-4644",
    "priceRange": {
      "min": 0,
      "max": 0
    },
    "hasParking": true,
    "coordinates": {
      "lat": 37.333351,
      "lng": 127.948801
    },
    "fileUrl": "/BCUser/facilitypic/1000000632/1554256394658.png"
  },
  {
    "id": "7000002634",
    "name": "쉴낙원 갈마성심장례식장",
    "category": "FUNERAL_HOME",
    "address": "대전광역시 서구 갈마로 45,지하1층 (갈마동)",
    "phone": "042-533-4400",
    "priceRange": {
      "min": 0,
      "max": 0
    },
    "hasParking": true,
    "coordinates": {
      "lat": 36.348143,
      "lng": 127.369807
    },
    "fileUrl": "/BCUser/facilitypic/7000002634/1709688446298.PNG"
  },
  {
    "id": "7000002576",
    "name": "화성함백산장례식장",
    "category": "FUNERAL_HOME",
    "address": "경기도 화성시 매송면 서해로 2448-32 (숙곡리)",
    "phone": "031-293-4244",
    "priceRange": {
      "min": 0,
      "max": 0
    },
    "hasParking": true,
    "coordinates": {
      "lat": 37.269013,
      "lng": 126.911102
    },
    "fileUrl": "/BCUser/facilitypic/1641010042626.jpg"
  },
  {
    "id": "1000000638",
    "name": "은하수공원장례식장",
    "category": "FUNERAL_HOME",
    "address": "세종특별자치시 정안세종로 1527,은하수공원 (산울동)",
    "phone": "044-850-1350",
    "priceRange": {
      "min": 0,
      "max": 0
    },
    "hasParking": true,
    "coordinates": {
      "lat": 36.53304,
      "lng": 127.24544
    },
    "fileUrl": "/BCUser/facilitypic/1339461405202_1000000638_0.jpg"
  },
  {
    "id": "1000000221",
    "name": "경기도의료원 이천병원장례식장",
    "category": "FUNERAL_HOME",
    "address": "경기도 이천시 경충대로 2742 (관고동)",
    "phone": "031-630-4444",
    "priceRange": {
      "min": 0,
      "max": 0
    },
    "hasParking": true,
    "coordinates": {
      "lat": 37.283011,
      "lng": 127.432923
    },
    "fileUrl": "/BCUser/facilitypic/1000000221/1554272846941.jpg"
  },
  {
    "id": "1000000544",
    "name": "연세대학교 강남장례식장",
    "category": "FUNERAL_HOME",
    "address": "서울특별시 강남구 언주로 211 (도곡동, 강남세브란스병원)",
    "phone": "02-2019-4000",
    "priceRange": {
      "min": 0,
      "max": 0
    },
    "hasParking": true,
    "coordinates": {
      "lat": 37.492736,
      "lng": 127.0462661
    },
    "fileUrl": "/BCUser/facilitypic/1465864060007_1000000544_0.jpg"
  },
  {
    "id": "7000001036",
    "name": "주식회사 헤븐앤어스",
    "category": "FUNERAL_HOME",
    "address": "경기도 고양시 덕양구 화수로14번길 55,명지병원B1층 (화정동)",
    "phone": "031-810-5444",
    "priceRange": {
      "min": 0,
      "max": 0
    },
    "hasParking": true,
    "coordinates": {
      "lat": 37.642301,
      "lng": 126.830732
    },
    "fileUrl": "/BCUser/facilitypic/1753078250093.jpg"
  },
  {
    "id": "7000000584",
    "name": "광주수완장례식장",
    "category": "FUNERAL_HOME",
    "address": "광주광역시 광산구 수완로 6 (신가동)",
    "phone": "062-959-4444",
    "priceRange": {
      "min": 0,
      "max": 0
    },
    "hasParking": true,
    "coordinates": {
      "lat": 35.185422,
      "lng": 126.829817
    },
    "fileUrl": "/BCUser/facilitypic/7000000584/1554960620791.jpg"
  },
  {
    "id": "1000000473",
    "name": "순천향장례식장",
    "category": "FUNERAL_HOME",
    "address": "경상북도 구미시 1공단로 179 (공단동, 구미순천향병원)",
    "phone": "054-464-4444",
    "priceRange": {
      "min": 0,
      "max": 0
    },
    "hasParking": true,
    "coordinates": {
      "lat": 36.103193,
      "lng": 128.382374
    },
    "fileUrl": "/BCUser/facilitypic/1000000473/1563510435098.jpg"
  },
  {
    "id": "7000001826",
    "name": "혜인요양병원장례식장",
    "category": "FUNERAL_HOME",
    "address": "경상남도 양산시 웅상대로 955지하1층장례식장 (평산동, 토해인병원)",
    "phone": "055-912-4449",
    "priceRange": {
      "min": 0,
      "max": 0
    },
    "hasParking": true,
    "coordinates": {
      "lat": 35.3849138,
      "lng": 129.1550255
    },
    "fileUrl": "/BCUser/facilitypic/7000001826/1560315644964.png"
  },
  {
    "id": "7000002646",
    "name": "성빈센트병원 장례식장",
    "category": "FUNERAL_HOME",
    "address": "경기도 수원시 팔달구 중부대로 93 (지동, 성빈센트병원)",
    "phone": "031-249-8444",
    "priceRange": {
      "min": 0,
      "max": 0
    },
    "hasParking": true,
    "coordinates": {
      "lat": 37.2777401,
      "lng": 127.0276295
    },
    "fileUrl": "/BCUser/facilitypic/1663633003606.jpeg"
  },
  {
    "id": "1000000724",
    "name": "(주)합천장례식장",
    "category": "FUNERAL_HOME",
    "address": "경상남도 합천군 대양면 동부로 64-2 (정양리)",
    "phone": "055-932-7000",
    "priceRange": {
      "min": 0,
      "max": 0
    },
    "hasParking": true,
    "coordinates": {
      "lat": 35.5554344,
      "lng": 128.168817
    },
    "fileUrl": "/BCUser/facilitypic/1000000724/1560321419892.jpg"
  },
  {
    "id": "7000001171",
    "name": "모현장례문화원",
    "category": "FUNERAL_HOME",
    "address": "전라북도 익산시 오산면 무왕로2길 321-20 (장신리)",
    "phone": "063-853-9889",
    "priceRange": {
      "min": 0,
      "max": 0
    },
    "hasParking": true,
    "coordinates": {
      "lat": 35.9497991,
      "lng": 126.9292297
    },
    "fileUrl": "/BCUser/facilitypic/1465892447312_7000001171_0.jpg"
  },
  {
    "id": "7000000418",
    "name": "웰니스1004병원장례식장",
    "category": "FUNERAL_HOME",
    "address": "대구광역시 서구 달구벌대로 1889 (내당동)",
    "phone": "053-522-0444",
    "priceRange": {
      "min": 0,
      "max": 0
    },
    "hasParking": true,
    "coordinates": {
      "lat": 35.8621546,
      "lng": 128.5708751
    },
    "fileUrl": "/BCUser/facilitypic/7000000418/1554958253394.jpg"
  },
  {
    "id": "7000000428",
    "name": "SMG연세병원장례식장",
    "category": "FUNERAL_HOME",
    "address": "경상남도 창원시 마산합포구 3.15대로 76 (월남동2가)",
    "phone": "055-223-1000",
    "priceRange": {
      "min": 0,
      "max": 0
    },
    "hasParking": true,
    "coordinates": {
      "lat": 35.1863296,
      "lng": 128.5616194
    },
    "fileUrl": "/BCUser/facilitypic/1751500088637.jpg"
  },
  {
    "id": "1000000671",
    "name": "장흥우리병원중앙장례식장",
    "category": "FUNERAL_HOME",
    "address": "전라남도 장흥군 장흥읍 남부관광로 6 (건산리)",
    "phone": "061-863-4444",
    "priceRange": {
      "min": 0,
      "max": 0
    },
    "hasParking": true,
    "coordinates": {
      "lat": 34.675606,
      "lng": 126.910706
    },
    "fileUrl": "/BCUser/facilitypic/1568083916328_1000000671_0.jpg"
  },
  {
    "id": "1000000276",
    "name": "배성병원장례식장",
    "category": "FUNERAL_HOME",
    "address": "대구광역시 북구 검단로 140 (검단동)",
    "phone": "053-382-1600",
    "priceRange": {
      "min": 0,
      "max": 0
    },
    "hasParking": true,
    "coordinates": {
      "lat": 35.907791,
      "lng": 128.62258
    },
    "fileUrl": "/BCUser/facilitypic/1000000276/1554960797925.jpg"
  },
  {
    "id": "1000000262",
    "name": "(주)모악장례문화원",
    "category": "FUNERAL_HOME",
    "address": "전라북도 전주시 완산구 우림로 1109 (삼천동2가)",
    "phone": "063-221-4400",
    "priceRange": {
      "min": 0,
      "max": 0
    },
    "hasParking": true,
    "coordinates": {
      "lat": 35.7856901,
      "lng": 127.1081599
    },
    "fileUrl": "/BCUser/facilitypic/1547433279730_1000000262_0.jpg"
  },
  {
    "id": "7000000476",
    "name": "거창장례식장",
    "category": "FUNERAL_HOME",
    "address": "경상남도 거창군 거창읍 장팔길 159-15 (장팔리)",
    "phone": "055-944-4444",
    "priceRange": {
      "min": 0,
      "max": 0
    },
    "hasParking": true,
    "coordinates": {
      "lat": 35.673401,
      "lng": 127.906728
    },
    "fileUrl": "/BCUser/facilitypic/7000000476/1555907557123.jpg"
  },
  {
    "id": "7000002790",
    "name": "구미강동병원장례식장",
    "category": "FUNERAL_HOME",
    "address": "경상북도 구미시 인동20길 46 지하1층 (진평동, 구미강동병원)",
    "phone": "054-473-9650",
    "priceRange": {
      "min": 0,
      "max": 0
    },
    "hasParking": true,
    "coordinates": {
      "lat": 36.096217,
      "lng": 128.422898
    },
    "fileUrl": "/BCUser/facilitypic/7000002790/1715041945561.gif"
  },
  {
    "id": "1000000902",
    "name": "혜성병원장례식장",
    "category": "FUNERAL_HOME",
    "address": "전라북도 부안군 부안읍 부령로 34 (선은리, 혜성병원)",
    "phone": "063-584-4300",
    "priceRange": {
      "min": 0,
      "max": 0
    },
    "hasParking": true,
    "coordinates": {
      "lat": 35.733182,
      "lng": 126.746824
    },
    "fileUrl": "/BCUser/facilitypic/1000000902/1563523154426.jpg"
  },
  {
    "id": "1000000897",
    "name": "현대병원장례식장",
    "category": "FUNERAL_HOME",
    "address": "경상남도 김해시 구산로 23 (구산동)",
    "phone": "055-331-0036",
    "priceRange": {
      "min": 0,
      "max": 0
    },
    "hasParking": true,
    "coordinates": {
      "lat": 35.2490459,
      "lng": 128.8713956
    },
    "fileUrl": "/BCUser/facilitypic/1000000897/1555984160997.jpg"
  },
  {
    "id": "1000000935",
    "name": "효자원장례식장",
    "category": "FUNERAL_HOME",
    "address": "경기도 이천시 백사면 지읍로 169 (조읍리)",
    "phone": "031-631-4411",
    "priceRange": {
      "min": 0,
      "max": 0
    },
    "hasParking": true,
    "coordinates": {
      "lat": 37.3210663,
      "lng": 127.4775047
    },
    "fileUrl": "/BCUser/facilitypic/1329397474501_1000000935_0.JPG"
  },
  {
    "id": "7000001310",
    "name": "청기와장례식장(계양점)",
    "category": "FUNERAL_HOME",
    "address": "인천광역시 계양구 아나지로 559 (서운동)",
    "phone": "032-546-4444",
    "priceRange": {
      "min": 0,
      "max": 0
    },
    "hasParking": true,
    "coordinates": {
      "lat": 37.5264305,
      "lng": 126.755423
    },
    "fileUrl": "/BCUser/facilitypic/7000001310/1555491295824.png"
  },
  {
    "id": "7000000980",
    "name": "남구미요양병원장례식장",
    "category": "FUNERAL_HOME",
    "address": "경상북도 구미시 금오대로 378 (오태동)",
    "phone": "054-716-0044",
    "priceRange": {
      "min": 0,
      "max": 0
    },
    "hasParking": true,
    "coordinates": {
      "lat": 36.077065,
      "lng": 128.352681
    },
    "fileUrl": "/BCUser/facilitypic/7000000980/1560329792778.jpg"
  },
  {
    "id": "1000000728",
    "name": "국화향기",
    "category": "FUNERAL_HOME",
    "address": "경기도 안산시 상록구 구룡로 87 (일동)",
    "phone": "031-501-4646",
    "priceRange": {
      "min": 0,
      "max": 0
    },
    "hasParking": true,
    "coordinates": {
      "lat": 37.317426,
      "lng": 126.873671
    },
    "fileUrl": "/BCUser/facilitypic/1000000728/1554267087154.jpg"
  },
  {
    "id": "1000000066",
    "name": "계명대학교경주동산병원장례식장",
    "category": "FUNERAL_HOME",
    "address": "경상북도 경주시 봉황로 65 (서부동, 계명대학교경주동산병원)",
    "phone": "054-774-0288",
    "priceRange": {
      "min": 0,
      "max": 0
    },
    "hasParking": true,
    "coordinates": {
      "lat": 35.845395,
      "lng": 129.209666
    },
    "fileUrl": "/BCUser/facilitypic/1000000066/1563522914765.jpg"
  },
  {
    "id": "7000001209",
    "name": "백제장례예식장",
    "category": "FUNERAL_HOME",
    "address": "전라북도 익산시 함열읍 익산대로 1493 (석매리)",
    "phone": "063-861-5300",
    "priceRange": {
      "min": 0,
      "max": 0
    },
    "hasParking": true,
    "coordinates": {
      "lat": 36.052189,
      "lng": 126.961166
    },
    "fileUrl": "/BCUser/facilitypic/7000001209/1555487942890.png"
  },
  {
    "id": "7000001975",
    "name": "효사랑요양병원장례식장",
    "category": "FUNERAL_HOME",
    "address": "경상북도 영천시 금호읍 금호로 484 (신월리, 효사랑요양병원)",
    "phone": "054-337-4044",
    "priceRange": {
      "min": 0,
      "max": 0
    },
    "hasParking": true,
    "coordinates": {
      "lat": 35.949646,
      "lng": 128.906364
    },
    "fileUrl": "/BCUser/facilitypic/7000001975/1562898209981.jpg"
  },
  {
    "id": "1000000938",
    "name": "휴앤유병원장례식장",
    "category": "FUNERAL_HOME",
    "address": "경기도 부천시 소사구 심곡로10번길 63 (송내동)",
    "phone": "032-662-1024",
    "priceRange": {
      "min": 0,
      "max": 0
    },
    "hasParking": true,
    "coordinates": {
      "lat": 37.4828969,
      "lng": 126.7725187
    },
    "fileUrl": "/BCUser/facilitypic/1470278259977_1000000938_0.jpg"
  },
  {
    "id": "7000000948",
    "name": "분당추모공원휴",
    "category": "FUNERAL_HOME",
    "address": "경기도 광주시 오포읍 오포로 211-49 (능평리)",
    "phone": "031-762-3000",
    "priceRange": {
      "min": 0,
      "max": 0
    },
    "hasParking": true,
    "coordinates": {
      "lat": null,
      "lng": null
    },
    "fileUrl": "/BCUser/facilitypic/1562735713358_7000000948_0.jpg"
  },
  {
    "id": "700002700",
    "name": "행림병원 장례식장",
    "category": "FUNERAL_HOME",
    "address": "부산광역시 금정구 중앙대로 1905(행림병원장례식장) (구서동, 행림병원)",
    "phone": "051-582-1024",
    "priceRange": {
      "min": 0,
      "max": 0
    },
    "hasParking": true,
    "coordinates": {
      "lat": 35.254443,
      "lng": 129.09119
    },
    "fileUrl": "/BCUser/facilitypic/700002700/1709688543515.PNG"
  },
  {
    "id": "1000000046",
    "name": "건국대학교충주병원장례식장",
    "category": "FUNERAL_HOME",
    "address": "충청북도 충주시 국원대로 82 (교현동)",
    "phone": "043-840-8444",
    "priceRange": {
      "min": 0,
      "max": 0
    },
    "hasParking": true,
    "coordinates": {
      "lat": 36.978955,
      "lng": 127.929285
    },
    "fileUrl": "/BCUser/facilitypic/1000000046/1554969195113.jpg"
  },
  {
    "id": "1000000820",
    "name": "교원예움 평택장례식장 ",
    "category": "FUNERAL_HOME",
    "address": "경기도 평택시 신평로 205, (구)평택장례문화원  (군문동)",
    "phone": "031-652-0404",
    "priceRange": {
      "min": 0,
      "max": 0
    },
    "hasParking": true,
    "coordinates": {
      "lat": 36.9818227,
      "lng": 127.0932031
    },
    "fileUrl": "/BCUser/facilitypic/1687394898211.jpg"
  },
  {
    "id": "7000000461",
    "name": "사랑의병원장례식장",
    "category": "FUNERAL_HOME",
    "address": "경기도 안산시 상록구 예술광장로 69 (성포동)",
    "phone": "031-437-4000",
    "priceRange": {
      "min": 0,
      "max": 0
    },
    "hasParking": true,
    "coordinates": {
      "lat": 37.3269791,
      "lng": 126.8447793
    },
    "fileUrl": "/BCUser/facilitypic/7000000461/1579507532844.jpg"
  },
  {
    "id": "7000001548",
    "name": "목포장례문화원",
    "category": "FUNERAL_HOME",
    "address": "전라남도 목포시 고하대로 1140-41 (대양동)",
    "phone": "061-242-4400",
    "priceRange": {
      "min": 0,
      "max": 0
    },
    "hasParking": true,
    "coordinates": {
      "lat": 34.840065,
      "lng": 126.406184
    },
    "fileUrl": "/BCUser/facilitypic/7000001548/1562914093205.jpg"
  },
  {
    "id": "7000001824",
    "name": "아성병원장례식장",
    "category": "FUNERAL_HOME",
    "address": "경상북도 구미시 선기로 155-23 (선기동)",
    "phone": "054-442-5555",
    "priceRange": {
      "min": 0,
      "max": 0
    },
    "hasParking": true,
    "coordinates": {
      "lat": 36.128627,
      "lng": 128.3069999
    },
    "fileUrl": "/BCUser/facilitypic/7000001824/1560329992806.jpg"
  },
  {
    "id": "7000001224",
    "name": "관산정남진장례식장",
    "category": "FUNERAL_HOME",
    "address": "전라남도 장흥군 관산읍 관산로 133 (남송리)",
    "phone": "061-867-4400",
    "priceRange": {
      "min": 0,
      "max": 0
    },
    "hasParking": true,
    "coordinates": {
      "lat": 34.566523,
      "lng": 126.936085
    },
    "fileUrl": "/BCUser/facilitypic/7000001224/1554880611641.png"
  },
  {
    "id": "7000001153",
    "name": "부안호남장례식장",
    "category": "FUNERAL_HOME",
    "address": "전라북도 부안군 행안면 부안로 2563 (신기리)",
    "phone": "063-581-1004",
    "priceRange": {
      "min": 0,
      "max": 0
    },
    "hasParking": true,
    "coordinates": {
      "lat": 35.7220451,
      "lng": 126.7204988
    },
    "fileUrl": "/BCUser/facilitypic/1476958262032_7000001153_0.jpg"
  },
  {
    "id": "1000000710",
    "name": "(주)비이케이더블유 좋은삼선병원지점",
    "category": "FUNERAL_HOME",
    "address": "부산광역시 사상구 가야대로 326 (주례동, 좋은삼선병원)",
    "phone": "051-310-9292",
    "priceRange": {
      "min": 0,
      "max": 0
    },
    "hasParking": true,
    "coordinates": {
      "lat": 35.1503219,
      "lng": 129.0083192
    },
    "fileUrl": "/BCUser/facilitypic/1000000710/1564463256930.jpg"
  },
  {
    "id": "1000000071",
    "name": "합천고려병원 장례식장",
    "category": "FUNERAL_HOME",
    "address": "경상남도 합천군 대양면 대야로 737-20 (정양리)",
    "phone": "055-931-4464",
    "priceRange": {
      "min": 0,
      "max": 0
    },
    "hasParking": true,
    "coordinates": {
      "lat": 35.553033,
      "lng": 128.161338
    },
    "fileUrl": "/BCUser/facilitypic/1000000071/1563513181655.jpg"
  },
  {
    "id": "1000000640",
    "name": "노원을지대학교병원장례식장",
    "category": "FUNERAL_HOME",
    "address": "서울특별시 노원구 한글비석로 68 (하계동, 을지병원)",
    "phone": "02-970-8444",
    "priceRange": {
      "min": 0,
      "max": 0
    },
    "hasParking": true,
    "coordinates": {
      "lat": 37.6363293,
      "lng": 127.0697068
    },
    "fileUrl": "/BCUser/facilitypic/1479093265477_1000000640_0.jpg"
  },
  {
    "id": "1000000577",
    "name": "예산명지병원장례식장",
    "category": "FUNERAL_HOME",
    "address": "충청남도 예산군 예산읍 신례원로 26 (관작리)",
    "phone": "041-334-0444",
    "priceRange": {
      "min": 0,
      "max": 0
    },
    "hasParking": true,
    "coordinates": {
      "lat": 36.7135463,
      "lng": 126.8344759
    },
    "fileUrl": "/BCUser/facilitypic/1000000577/1555985261316.jpg"
  },
  {
    "id": "1000000148",
    "name": "김천의료원장례식장",
    "category": "FUNERAL_HOME",
    "address": "경상북도 김천시 모암길 24 (모암동)",
    "phone": "054-429-8280",
    "priceRange": {
      "min": 0,
      "max": 0
    },
    "hasParking": true,
    "coordinates": {
      "lat": 36.122645,
      "lng": 128.125956
    },
    "fileUrl": "/BCUser/facilitypic/1000000148/1554254692475.jpg"
  },
  {
    "id": "1000000166",
    "name": "남원장례식장",
    "category": "FUNERAL_HOME",
    "address": "전라북도 남원시 충정로 265-7 (월락동)",
    "phone": "063-635-4444",
    "priceRange": {
      "min": 0,
      "max": 0
    },
    "hasParking": true,
    "coordinates": {
      "lat": 35.4258111,
      "lng": 127.3971776
    },
    "fileUrl": "/BCUser/facilitypic/1000000166/1563511969245.jpg"
  },
  {
    "id": "1000000495",
    "name": "실로암사랑요양병원장례식장",
    "category": "FUNERAL_HOME",
    "address": "전라북도 익산시 선화로 389 (영등동)",
    "phone": "063-858-4444",
    "priceRange": {
      "min": 0,
      "max": 0
    },
    "hasParking": true,
    "coordinates": {
      "lat": 35.946179,
      "lng": 126.972173
    },
    "fileUrl": "/BCUser/facilitypic/1442904791347_1000000495_0.jpg"
  },
  {
    "id": "1000000404",
    "name": "더조은장례식장",
    "category": "FUNERAL_HOME",
    "address": "서울특별시 노원구 화랑로 323 지하1층, 지하3층 (월계동)",
    "phone": "02-941-4444",
    "priceRange": {
      "min": 0,
      "max": 0
    },
    "hasParking": true,
    "coordinates": {
      "lat": 37.6148474,
      "lng": 127.0636303
    },
    "fileUrl": "/BCUser/facilitypic/1000000404/1554361406333.png"
  },
  {
    "id": "7000001239",
    "name": "강진의료원장례식장",
    "category": "FUNERAL_HOME",
    "address": "전라남도 강진군 강진읍 탐진로 5 (서성리, 강진의료원)",
    "phone": "061-430-1004",
    "priceRange": {
      "min": 0,
      "max": 0
    },
    "hasParking": true,
    "coordinates": {
      "lat": 34.6372553,
      "lng": 126.757457
    },
    "fileUrl": "/BCUser/facilitypic/7000001239/1562898370406.jpg"
  },
  {
    "id": "7000001604",
    "name": "시민장례식장",
    "category": "FUNERAL_HOME",
    "address": "경상북도 경주시 화랑로 40 (성건동)",
    "phone": "054-775-4443",
    "priceRange": {
      "min": 0,
      "max": 0
    },
    "hasParking": true,
    "coordinates": {
      "lat": 35.8443683,
      "lng": 129.2051753
    },
    "fileUrl": "/BCUser/facilitypic/7000001604/1560327742123.jpg"
  },
  {
    "id": "7000001254",
    "name": "제주대학교병원장례식장",
    "category": "FUNERAL_HOME",
    "address": "제주특별자치도 제주시 아란13길 15 (아라일동, 제주대학병원)",
    "phone": "064-717-2900",
    "priceRange": {
      "min": 0,
      "max": 0
    },
    "hasParking": true,
    "coordinates": {
      "lat": 33.466798,
      "lng": 126.545379
    },
    "fileUrl": "/BCUser/facilitypic/7000001254/1554269667709.jpg"
  },
  {
    "id": "7000002062",
    "name": "쉴낙원 인천장례식장",
    "category": "FUNERAL_HOME",
    "address": "인천광역시 계양구 아나지로 552 (서운동)",
    "phone": "032-548-1009",
    "priceRange": {
      "min": 0,
      "max": 0
    },
    "hasParking": true,
    "coordinates": {
      "lat": 37.524726,
      "lng": 126.754059
    },
    "fileUrl": "/BCUser/facilitypic/1532059288676_7000002062_0.jpg"
  },
  {
    "id": "1000000444",
    "name": "세화병원장례식장",
    "category": "FUNERAL_HOME",
    "address": "경기도 안산시 상록구 용신로 355 (본오동)",
    "phone": "031-501-4444",
    "priceRange": {
      "min": 0,
      "max": 0
    },
    "hasParking": true,
    "coordinates": {
      "lat": 37.3020073,
      "lng": 126.8615462
    },
    "fileUrl": "/BCUser/facilitypic/1535185113195_1000000444_0.jpg"
  },
  {
    "id": "1000000116",
    "name": "문경국화원장례식장",
    "category": "FUNERAL_HOME",
    "address": "경상북도 문경시 공평로 134 (공평동)",
    "phone": "054-555-6444",
    "priceRange": {
      "min": 0,
      "max": 0
    },
    "hasParking": true,
    "coordinates": {
      "lat": 36.611097,
      "lng": 128.180791
    },
    "fileUrl": "/BCUser/facilitypic/1000000116/1561096883263.png"
  },
  {
    "id": "1000000258",
    "name": "메디힐병원장례식장",
    "category": "FUNERAL_HOME",
    "address": "서울특별시 양천구 남부순환로 331 (신월동)",
    "phone": "02-2601-7500",
    "priceRange": {
      "min": 0,
      "max": 0
    },
    "hasParking": true,
    "coordinates": {
      "lat": 37.5373069,
      "lng": 126.8277244
    },
    "fileUrl": "/BCUser/facilitypic/1000000258/1560314893844.jpg"
  },
  {
    "id": "1000000136",
    "name": "(주)금성장례식장",
    "category": "FUNERAL_HOME",
    "address": "전라북도 전주시 덕진구 가리내로 670 (송천동2가)",
    "phone": "063-276-4444",
    "priceRange": {
      "min": 0,
      "max": 0
    },
    "hasParking": true,
    "coordinates": {
      "lat": 35.8679966,
      "lng": 127.1085674
    },
    "fileUrl": "/BCUser/facilitypic/1613786960520.jpg"
  },
  {
    "id": "1000000899",
    "name": "혜민병원장례식장",
    "category": "FUNERAL_HOME",
    "address": "서울특별시 광진구 자양로 85 (자양동)",
    "phone": "02-444-1552",
    "priceRange": {
      "min": 0,
      "max": 0
    },
    "hasParking": true,
    "coordinates": {
      "lat": 37.53519,
      "lng": 127.0833838
    },
    "fileUrl": "/BCUser/facilitypic/1000000899/1554366488241.png"
  },
  {
    "id": "7000002622",
    "name": "k병원장례식장 예지원",
    "category": "FUNERAL_HOME",
    "address": "대구광역시 북구 칠곡중앙대로 357 (태전동)",
    "phone": "053-322-4444",
    "priceRange": {
      "min": 0,
      "max": 0
    },
    "hasParking": true,
    "coordinates": {
      "lat": 35.927732,
      "lng": 128.546344
    },
    "fileUrl": "/BCUser/facilitypic/1650246155502.JPG"
  },
  {
    "id": "7000001436",
    "name": "자연병원장례식장",
    "category": "FUNERAL_HOME",
    "address": "부산광역시 사하구 장평로 1 (장림동)",
    "phone": "051-262-1023",
    "priceRange": {
      "min": 0,
      "max": 0
    },
    "hasParking": true,
    "coordinates": {
      "lat": 35.0688048,
      "lng": 128.9770399
    },
    "fileUrl": "/BCUser/facilitypic/7000001436/1576463963295.jpg"
  },
  {
    "id": "1000000426",
    "name": "성애장례식장",
    "category": "FUNERAL_HOME",
    "address": "서울특별시 영등포구 여의대방로53길 22 (신길동, 성애병원)",
    "phone": "02-844-4444",
    "priceRange": {
      "min": 0,
      "max": 0
    },
    "hasParking": true,
    "coordinates": {
      "lat": 37.511929,
      "lng": 126.922338
    },
    "fileUrl": "/BCUser/facilitypic/1000000426/1554359803386.png"
  },
  {
    "id": "1000000578",
    "name": "예산종합병원장례식장",
    "category": "FUNERAL_HOME",
    "address": "충청남도 예산군 예산읍 금오대로 94 (산성리)",
    "phone": "041-331-4444",
    "priceRange": {
      "min": 0,
      "max": 0
    },
    "hasParking": true,
    "coordinates": {
      "lat": 36.691069,
      "lng": 126.838104
    },
    "fileUrl": "/BCUser/facilitypic/1661915646241.jpg"
  },
  {
    "id": "1000000303",
    "name": "광주보훈병원장례식장",
    "category": "FUNERAL_HOME",
    "address": "광주광역시 광산구 첨단월봉로 99 (산월동, 광주보훈병원)",
    "phone": "062-973-9164",
    "priceRange": {
      "min": 0,
      "max": 0
    },
    "hasParking": true,
    "coordinates": {
      "lat": 35.208512,
      "lng": 126.850878
    },
    "fileUrl": "/BCUser/facilitypic/1000000303/1562898844925.jpg"
  },
  {
    "id": "1000000178",
    "name": "옥천농협장례식장",
    "category": "FUNERAL_HOME",
    "address": "충청북도 옥천군 옥천읍 옥천로 1720 (대천리)",
    "phone": "043-731-4443",
    "priceRange": {
      "min": 0,
      "max": 0
    },
    "hasParking": true,
    "coordinates": {
      "lat": 36.2901839,
      "lng": 127.5684661
    },
    "fileUrl": "/BCUser/facilitypic/1000000178/1555315227328.jpg"
  },
  {
    "id": "1000000807",
    "name": "태안군보건의료원 상례원",
    "category": "FUNERAL_HOME",
    "address": "충청남도 태안군 태안읍 서해로 1952-16 (평천리, 태안군보건의료원)",
    "phone": "041-671-5303",
    "priceRange": {
      "min": 0,
      "max": 0
    },
    "hasParking": true,
    "coordinates": {
      "lat": 36.752344,
      "lng": 126.322589
    },
    "fileUrl": "/BCUser/facilitypic/1000000807/1554264560386.jpg"
  },
  {
    "id": "1000000119",
    "name": "군산장례식장",
    "category": "FUNERAL_HOME",
    "address": "전라북도 군산시 공단대로 700 (소룡동)",
    "phone": "063-468-4119",
    "priceRange": {
      "min": 0,
      "max": 0
    },
    "hasParking": true,
    "coordinates": {
      "lat": 35.9786508,
      "lng": 126.6734223
    },
    "fileUrl": "/BCUser/facilitypic/1000000119/1556066670047.jpg"
  },
  {
    "id": "1000000376",
    "name": "서울대학교병원장례식장",
    "category": "FUNERAL_HOME",
    "address": "서울특별시 종로구 대학로 101,서울대학교병원 (연건동)",
    "phone": "02-2072-2020",
    "priceRange": {
      "min": 0,
      "max": 0
    },
    "hasParking": true,
    "coordinates": {
      "lat": 37.5792598,
      "lng": 126.9983979
    },
    "fileUrl": "/BCUser/facilitypic/1000000376/1554359668848.png"
  },
  {
    "id": "7000000830",
    "name": "서해안장례식장",
    "category": "FUNERAL_HOME",
    "address": "전라남도 목포시 고하대로 797 (연산동)",
    "phone": "061-246-4444",
    "priceRange": {
      "min": 0,
      "max": 0
    },
    "hasParking": true,
    "coordinates": {
      "lat": 34.8162782,
      "lng": 126.3815126
    },
    "fileUrl": "/BCUser/facilitypic/7000000830/1563425200939.jpg"
  },
  {
    "id": "7000001112",
    "name": "추모원장례식장",
    "category": "FUNERAL_HOME",
    "address": "경상남도 사천시 서포면 서포로 786 (외구리)",
    "phone": "055-855-4433",
    "priceRange": {
      "min": 0,
      "max": 0
    },
    "hasParking": true,
    "coordinates": {
      "lat": 35.0490321,
      "lng": 127.9648301
    },
    "fileUrl": "/BCUser/facilitypic/7000001112/1560315202831.png"
  },
  {
    "id": "7000000621",
    "name": "서부산시민장례식장",
    "category": "FUNERAL_HOME",
    "address": "부산광역시 사하구 장림번영로 59 (장림동)",
    "phone": "051-264-0444",
    "priceRange": {
      "min": 0,
      "max": 0
    },
    "hasParking": true,
    "coordinates": {
      "lat": 35.0808644,
      "lng": 128.9720298
    },
    "fileUrl": "/BCUser/facilitypic/1505439841754_7000000621_0.jpg"
  },
  {
    "id": "1000000687",
    "name": "제일병원장례식장",
    "category": "FUNERAL_HOME",
    "address": "울산광역시 남구 남산로354번길 26 (신정동, 제일병원)",
    "phone": "052-265-1005",
    "priceRange": {
      "min": 0,
      "max": 0
    },
    "hasParking": true,
    "coordinates": {
      "lat": 35.5482242,
      "lng": 129.306891
    },
    "fileUrl": "/BCUser/facilitypic/1000000687/1555913296376.jpg"
  },